{
  "name": "Colorado",
  "slug": "colorado",
  "locations": [
    {
      "id": "17212",
      "title": "Arc Thrift - Arvada",
      "company": "Arc Thrift",
      "description": "From its humble beginnings in 1950, Arc Thrift Stores has grown to become a major player in the charitable industry, now running more than 700 chapters around the country.\n\nDonations accepted at their many chapters include clothing, household items, and jewelry. If you're not sure whether your donations will be accepted, please give them a call beforehand.",
      "state": "Colorado",
      "stateSlug": "colorado",
      "city": "Unknown",
      "address": "12345 W 58th Ave, Arvada, CO 80002, USA",
      "street": "12345 West 58th Avenue",
      "zip": "80002",
      "coordinates": {
        "lat": 39.802215,
        "lng": -105.136983
      },
      "acceptedMaterials": [
        "Appliances",
        "Books",
        "Clothing",
        "Furniture",
        "Homewares",
        "Toys"
      ],
      "logo": "arc-thrift.jpg",
      "permalink": "https://www.clothedonations.com/colorado/arc-thrift-arvada/",
      "lastUpdated": "6/10/2024"
    },
    {
      "id": "17213",
      "title": "Arc Thrift - Arvada",
      "company": "Arc Thrift",
      "description": "From its humble beginnings in 1950, Arc Thrift Stores has grown to become a major player in the charitable industry, now running more than 700 chapters around the country.\n\nDonations accepted at their many chapters include clothing, household items, and jewelry. If you're not sure whether your donations will be accepted, please give them a call beforehand.",
      "state": "Colorado",
      "stateSlug": "colorado",
      "city": "Unknown",
      "address": "12345 W 58th Ave, Arvada, CO 80002, USA",
      "street": "12345 West 58th Avenue",
      "zip": "80002",
      "coordinates": {
        "lat": 39.802215,
        "lng": -105.136983
      },
      "acceptedMaterials": [
        "Appliances",
        "Books",
        "Clothing",
        "Furniture",
        "Homewares",
        "Toys"
      ],
      "logo": "arc-thrift.jpg",
      "permalink": "https://www.clothedonations.com/colorado/arc-thrift-arvada-2/",
      "lastUpdated": "6/10/2024"
    },
    {
      "id": "17214",
      "title": "Arc Thrift - Arvada",
      "company": "Arc Thrift",
      "description": "From its humble beginnings in 1950, Arc Thrift Stores has grown to become a major player in the charitable industry, now running more than 700 chapters around the country.\n\nDonations accepted at their many chapters include clothing, household items, and jewelry. If you're not sure whether your donations will be accepted, please give them a call beforehand.",
      "state": "Colorado",
      "stateSlug": "colorado",
      "city": "Unknown",
      "address": "9661 W 58th Ave, Arvada, CO 80004, USA",
      "street": "9661 West 58th Avenue",
      "zip": "80004",
      "coordinates": {
        "lat": 39.803187,
        "lng": -105.105705
      },
      "acceptedMaterials": [
        "Appliances",
        "Books",
        "Clothing",
        "Furniture",
        "Homewares",
        "Toys"
      ],
      "logo": "arc-thrift.jpg",
      "permalink": "https://www.clothedonations.com/colorado/arc-thrift-arvada-3/",
      "lastUpdated": "6/10/2024"
    },
    {
      "id": "17215",
      "title": "Arc Thrift - Arvada",
      "company": "Arc Thrift",
      "description": "From its humble beginnings in 1950, Arc Thrift Stores has grown to become a major player in the charitable industry, now running more than 700 chapters around the country.\n\nDonations accepted at their many chapters include clothing, household items, and jewelry. If you're not sure whether your donations will be accepted, please give them a call beforehand.",
      "state": "Colorado",
      "stateSlug": "colorado",
      "city": "Unknown",
      "address": "9661 W 58th Ave, Arvada, CO 80004, USA",
      "street": "9661 West 58th Avenue",
      "zip": "80004",
      "coordinates": {
        "lat": 39.803187,
        "lng": -105.105705
      },
      "acceptedMaterials": [
        "Appliances",
        "Books",
        "Clothing",
        "Furniture",
        "Homewares",
        "Toys"
      ],
      "logo": "arc-thrift.jpg",
      "permalink": "https://www.clothedonations.com/colorado/arc-thrift-arvada-4/",
      "lastUpdated": "6/10/2024"
    },
    {
      "id": "17216",
      "title": "Arc Thrift - Westminster",
      "company": "Arc Thrift",
      "description": "From its humble beginnings in 1950, Arc Thrift Stores has grown to become a major player in the charitable industry, now running more than 700 chapters around the country.\n\nDonations accepted at their many chapters include clothing, household items, and jewelry. If you're not sure whether your donations will be accepted, please give them a call beforehand.",
      "state": "Colorado",
      "stateSlug": "colorado",
      "city": "Unknown",
      "address": "8657 Sheridan Boulevard, Arvada, CO 80003, USA",
      "street": "Sheridan Boulevard",
      "zip": "80003",
      "coordinates": {
        "lat": 39.853801,
        "lng": -105.055409
      },
      "acceptedMaterials": [
        "Appliances",
        "Books",
        "Clothing",
        "Furniture",
        "Homewares",
        "Toys"
      ],
      "logo": "arc-thrift.jpg",
      "permalink": "https://www.clothedonations.com/colorado/arc-thrift-westminster/",
      "lastUpdated": "6/10/2024"
    },
    {
      "id": "17217",
      "title": "Arc Thrift - Westminster",
      "company": "Arc Thrift",
      "description": "From its humble beginnings in 1950, Arc Thrift Stores has grown to become a major player in the charitable industry, now running more than 700 chapters around the country.\n\nDonations accepted at their many chapters include clothing, household items, and jewelry. If you're not sure whether your donations will be accepted, please give them a call beforehand.",
      "state": "Colorado",
      "stateSlug": "colorado",
      "city": "Unknown",
      "address": "8657 Sheridan Boulevard, Arvada, CO 80003, USA",
      "street": "Sheridan Boulevard",
      "zip": "80003",
      "coordinates": {
        "lat": 39.853801,
        "lng": -105.055409
      },
      "acceptedMaterials": [
        "Appliances",
        "Books",
        "Clothing",
        "Furniture",
        "Homewares",
        "Toys"
      ],
      "logo": "arc-thrift.jpg",
      "permalink": "https://www.clothedonations.com/colorado/arc-thrift-westminster-2/",
      "lastUpdated": "6/10/2024"
    },
    {
      "id": "17218",
      "title": "Arc Thrift - Aurora",
      "company": "Arc Thrift",
      "description": "From its humble beginnings in 1950, Arc Thrift Stores has grown to become a major player in the charitable industry, now running more than 700 chapters around the country.\n\nDonations accepted at their many chapters include clothing, household items, and jewelry. If you're not sure whether your donations will be accepted, please give them a call beforehand.",
      "state": "Colorado",
      "stateSlug": "colorado",
      "city": "Aurora",
      "address": "10000 E Colfax Ave, Aurora, CO 80010, USA",
      "street": "10000 East Colfax Avenue",
      "zip": "80010",
      "coordinates": {
        "lat": 39.739998,
        "lng": -104.870839
      },
      "acceptedMaterials": [
        "Appliances",
        "Books",
        "Clothing",
        "Furniture",
        "Homewares",
        "Toys"
      ],
      "logo": "arc-thrift.jpg",
      "permalink": "https://www.clothedonations.com/colorado/arc-thrift-aurora/",
      "lastUpdated": "6/10/2024"
    },
    {
      "id": "17219",
      "title": "Arc Thrift - Aurora",
      "company": "Arc Thrift",
      "description": "From its humble beginnings in 1950, Arc Thrift Stores has grown to become a major player in the charitable industry, now running more than 700 chapters around the country.\n\nDonations accepted at their many chapters include clothing, household items, and jewelry. If you're not sure whether your donations will be accepted, please give them a call beforehand.",
      "state": "Colorado",
      "stateSlug": "colorado",
      "city": "Aurora",
      "address": "10000 E Colfax Ave, Aurora, CO 80010, USA",
      "street": "10000 East Colfax Avenue",
      "zip": "80010",
      "coordinates": {
        "lat": 39.739998,
        "lng": -104.870839
      },
      "acceptedMaterials": [
        "Appliances",
        "Books",
        "Clothing",
        "Furniture",
        "Homewares",
        "Toys"
      ],
      "logo": "arc-thrift.jpg",
      "permalink": "https://www.clothedonations.com/colorado/arc-thrift-aurora-2/",
      "lastUpdated": "6/10/2024"
    },
    {
      "id": "17220",
      "title": "Arc Thrift - Aurora",
      "company": "Arc Thrift",
      "description": "From its humble beginnings in 1950, Arc Thrift Stores has grown to become a major player in the charitable industry, now running more than 700 chapters around the country.\n\nDonations accepted at their many chapters include clothing, household items, and jewelry. If you're not sure whether your donations will be accepted, please give them a call beforehand.",
      "state": "Colorado",
      "stateSlug": "colorado",
      "city": "Aurora",
      "address": "1070 S Sable Blvd, Aurora, CO 80012, USA",
      "street": "1070 South Sable Boulevard",
      "zip": "80012",
      "coordinates": {
        "lat": 39.697368,
        "lng": -104.819101
      },
      "acceptedMaterials": [
        "Appliances",
        "Books",
        "Clothing",
        "Furniture",
        "Homewares",
        "Toys"
      ],
      "logo": "arc-thrift.jpg",
      "permalink": "https://www.clothedonations.com/colorado/arc-thrift-aurora-3/",
      "lastUpdated": "6/10/2024"
    },
    {
      "id": "17221",
      "title": "Arc Thrift - Aurora",
      "company": "Arc Thrift",
      "description": "From its humble beginnings in 1950, Arc Thrift Stores has grown to become a major player in the charitable industry, now running more than 700 chapters around the country.\n\nDonations accepted at their many chapters include clothing, household items, and jewelry. If you're not sure whether your donations will be accepted, please give them a call beforehand.",
      "state": "Colorado",
      "stateSlug": "colorado",
      "city": "Aurora",
      "address": "1070 S Sable Blvd, Aurora, CO 80012, USA",
      "street": "1070 South Sable Boulevard",
      "zip": "80012",
      "coordinates": {
        "lat": 39.697368,
        "lng": -104.819101
      },
      "acceptedMaterials": [
        "Appliances",
        "Books",
        "Clothing",
        "Furniture",
        "Homewares",
        "Toys"
      ],
      "logo": "arc-thrift.jpg",
      "permalink": "https://www.clothedonations.com/colorado/arc-thrift-aurora-4/",
      "lastUpdated": "6/10/2024"
    },
    {
      "id": "17222",
      "title": "Arc Thrift - Aurora",
      "company": "Arc Thrift",
      "description": "From its humble beginnings in 1950, Arc Thrift Stores has grown to become a major player in the charitable industry, now running more than 700 chapters around the country.\n\nDonations accepted at their many chapters include clothing, household items, and jewelry. If you're not sure whether your donations will be accepted, please give them a call beforehand.",
      "state": "Colorado",
      "stateSlug": "colorado",
      "city": "Aurora",
      "address": "16671 E Smoky Hill Rd, Aurora, CO 80015, USA",
      "street": "16671 East Smoky Hill Road",
      "zip": "80015",
      "coordinates": {
        "lat": 39.628046,
        "lng": -104.794636
      },
      "acceptedMaterials": [
        "Appliances",
        "Books",
        "Clothing",
        "Furniture",
        "Homewares",
        "Toys"
      ],
      "logo": "arc-thrift.jpg",
      "permalink": "https://www.clothedonations.com/colorado/arc-thrift-aurora-5/",
      "lastUpdated": "6/10/2024"
    },
    {
      "id": "17223",
      "title": "Arc Thrift - Aurora",
      "company": "Arc Thrift",
      "description": "From its humble beginnings in 1950, Arc Thrift Stores has grown to become a major player in the charitable industry, now running more than 700 chapters around the country.\n\nDonations accepted at their many chapters include clothing, household items, and jewelry. If you're not sure whether your donations will be accepted, please give them a call beforehand.",
      "state": "Colorado",
      "stateSlug": "colorado",
      "city": "Aurora",
      "address": "16671 E Smoky Hill Rd, Aurora, CO 80015, USA",
      "street": "16671 East Smoky Hill Road",
      "zip": "80015",
      "coordinates": {
        "lat": 39.628046,
        "lng": -104.794636
      },
      "acceptedMaterials": [
        "Appliances",
        "Books",
        "Clothing",
        "Furniture",
        "Homewares",
        "Toys"
      ],
      "logo": "arc-thrift.jpg",
      "permalink": "https://www.clothedonations.com/colorado/arc-thrift-aurora-6/",
      "lastUpdated": "6/10/2024"
    },
    {
      "id": "17224",
      "title": "Arc Thrift - Aurora",
      "company": "Arc Thrift",
      "description": "From its humble beginnings in 1950, Arc Thrift Stores has grown to become a major player in the charitable industry, now running more than 700 chapters around the country.\n\nDonations accepted at their many chapters include clothing, household items, and jewelry. If you're not sure whether your donations will be accepted, please give them a call beforehand.",
      "state": "Colorado",
      "stateSlug": "colorado",
      "city": "Aurora",
      "address": "16801 E Iliff Ave, Aurora, CO 80013, USA",
      "street": "16801 East Iliff Avenue",
      "zip": "80013",
      "coordinates": {
        "lat": 39.674834,
        "lng": -104.792753
      },
      "acceptedMaterials": [
        "Appliances",
        "Books",
        "Clothing",
        "Furniture",
        "Homewares",
        "Toys"
      ],
      "logo": "arc-thrift.jpg",
      "permalink": "https://www.clothedonations.com/colorado/arc-thrift-aurora-7/",
      "lastUpdated": "6/10/2024"
    },
    {
      "id": "17225",
      "title": "Arc Thrift - Aurora",
      "company": "Arc Thrift",
      "description": "From its humble beginnings in 1950, Arc Thrift Stores has grown to become a major player in the charitable industry, now running more than 700 chapters around the country.\n\nDonations accepted at their many chapters include clothing, household items, and jewelry. If you're not sure whether your donations will be accepted, please give them a call beforehand.",
      "state": "Colorado",
      "stateSlug": "colorado",
      "city": "Aurora",
      "address": "16801 E Iliff Ave, Aurora, CO 80013, USA",
      "street": "16801 East Iliff Avenue",
      "zip": "80013",
      "coordinates": {
        "lat": 39.674834,
        "lng": -104.792753
      },
      "acceptedMaterials": [
        "Appliances",
        "Books",
        "Clothing",
        "Furniture",
        "Homewares",
        "Toys"
      ],
      "logo": "arc-thrift.jpg",
      "permalink": "https://www.clothedonations.com/colorado/arc-thrift-aurora-8/",
      "lastUpdated": "6/10/2024"
    },
    {
      "id": "17226",
      "title": "Arc Thrift - Aurora",
      "company": "Arc Thrift",
      "description": "From its humble beginnings in 1950, Arc Thrift Stores has grown to become a major player in the charitable industry, now running more than 700 chapters around the country.\n\nDonations accepted at their many chapters include clothing, household items, and jewelry. If you're not sure whether your donations will be accepted, please give them a call beforehand.",
      "state": "Colorado",
      "stateSlug": "colorado",
      "city": "Aurora",
      "address": "3106 S Parker Rd, Aurora, CO 80014, USA",
      "street": "3106 South Parker Road",
      "zip": "80014",
      "coordinates": {
        "lat": 39.661262,
        "lng": -104.852375
      },
      "acceptedMaterials": [
        "Appliances",
        "Books",
        "Clothing",
        "Furniture",
        "Homewares",
        "Toys"
      ],
      "logo": "arc-thrift.jpg",
      "permalink": "https://www.clothedonations.com/colorado/arc-thrift-aurora-9/",
      "lastUpdated": "6/10/2024"
    },
    {
      "id": "17227",
      "title": "Arc Thrift - Aurora",
      "company": "Arc Thrift",
      "description": "From its humble beginnings in 1950, Arc Thrift Stores has grown to become a major player in the charitable industry, now running more than 700 chapters around the country.\n\nDonations accepted at their many chapters include clothing, household items, and jewelry. If you're not sure whether your donations will be accepted, please give them a call beforehand.",
      "state": "Colorado",
      "stateSlug": "colorado",
      "city": "Aurora",
      "address": "3106 S Parker Rd, Aurora, CO 80014, USA",
      "street": "3106 South Parker Road",
      "zip": "80014",
      "coordinates": {
        "lat": 39.661262,
        "lng": -104.852375
      },
      "acceptedMaterials": [
        "Appliances",
        "Books",
        "Clothing",
        "Furniture",
        "Homewares",
        "Toys"
      ],
      "logo": "arc-thrift.jpg",
      "permalink": "https://www.clothedonations.com/colorado/arc-thrift-aurora-10/",
      "lastUpdated": "6/10/2024"
    },
    {
      "id": "17234",
      "title": "Arc Thrift - Brighton",
      "company": "Arc Thrift",
      "description": "From its humble beginnings in 1950, Arc Thrift Stores has grown to become a major player in the charitable industry, now running more than 700 chapters around the country.\n\nDonations accepted at their many chapters include clothing, household items, and jewelry. If you're not sure whether your donations will be accepted, please give them a call beforehand.",
      "state": "Colorado",
      "stateSlug": "colorado",
      "city": "Unknown",
      "address": "825 S Kuner Rd, Brighton, CO 80601, USA",
      "street": "825 South Kuner Road",
      "zip": "80601",
      "coordinates": {
        "lat": 39.974418,
        "lng": -104.829593
      },
      "acceptedMaterials": [
        "Appliances",
        "Books",
        "Clothing",
        "Furniture",
        "Homewares",
        "Toys"
      ],
      "logo": "arc-thrift.jpg",
      "permalink": "https://www.clothedonations.com/colorado/arc-thrift-brighton/",
      "lastUpdated": "6/10/2024"
    },
    {
      "id": "17235",
      "title": "Arc Thrift - Brighton",
      "company": "Arc Thrift",
      "description": "From its humble beginnings in 1950, Arc Thrift Stores has grown to become a major player in the charitable industry, now running more than 700 chapters around the country.\n\nDonations accepted at their many chapters include clothing, household items, and jewelry. If you're not sure whether your donations will be accepted, please give them a call beforehand.",
      "state": "Colorado",
      "stateSlug": "colorado",
      "city": "Unknown",
      "address": "825 S Kuner Rd, Brighton, CO 80601, USA",
      "street": "825 South Kuner Road",
      "zip": "80601",
      "coordinates": {
        "lat": 39.974418,
        "lng": -104.829593
      },
      "acceptedMaterials": [
        "Appliances",
        "Books",
        "Clothing",
        "Furniture",
        "Homewares",
        "Toys"
      ],
      "logo": "arc-thrift.jpg",
      "permalink": "https://www.clothedonations.com/colorado/arc-thrift-brighton-2/",
      "lastUpdated": "6/10/2024"
    },
    {
      "id": "17239",
      "title": "Arc Thrift - Broomfield",
      "company": "Arc Thrift",
      "description": "From its humble beginnings in 1950, Arc Thrift Stores has grown to become a major player in the charitable industry, now running more than 700 chapters around the country.\n\nDonations accepted at their many chapters include clothing, household items, and jewelry. If you're not sure whether your donations will be accepted, please give them a call beforehand.",
      "state": "Colorado",
      "stateSlug": "colorado",
      "city": "Unknown",
      "address": "6500 W 120th Ave, Broomfield, CO 80020, USA",
      "street": "6500 West 120th Avenue",
      "zip": "80020",
      "coordinates": {
        "lat": 39.912851,
        "lng": -105.068498
      },
      "acceptedMaterials": [
        "Appliances",
        "Books",
        "Clothing",
        "Furniture",
        "Homewares",
        "Toys"
      ],
      "logo": "arc-thrift.jpg",
      "permalink": "https://www.clothedonations.com/colorado/arc-thrift-broomfield/",
      "lastUpdated": "6/10/2024"
    },
    {
      "id": "17240",
      "title": "Arc Thrift - Broomfield",
      "company": "Arc Thrift",
      "description": "From its humble beginnings in 1950, Arc Thrift Stores has grown to become a major player in the charitable industry, now running more than 700 chapters around the country.\n\nDonations accepted at their many chapters include clothing, household items, and jewelry. If you're not sure whether your donations will be accepted, please give them a call beforehand.",
      "state": "Colorado",
      "stateSlug": "colorado",
      "city": "Unknown",
      "address": "6500 W 120th Ave, Broomfield, CO 80020, USA",
      "street": "6500 West 120th Avenue",
      "zip": "80020",
      "coordinates": {
        "lat": 39.912851,
        "lng": -105.068498
      },
      "acceptedMaterials": [
        "Appliances",
        "Books",
        "Clothing",
        "Furniture",
        "Homewares",
        "Toys"
      ],
      "logo": "arc-thrift.jpg",
      "permalink": "https://www.clothedonations.com/colorado/arc-thrift-broomfield-2/",
      "lastUpdated": "6/10/2024"
    },
    {
      "id": "17245",
      "title": "Arc Thrift - Castle Rock",
      "company": "Arc Thrift",
      "description": "From its humble beginnings in 1950, Arc Thrift Stores has grown to become a major player in the charitable industry, now running more than 700 chapters around the country.\n\nDonations accepted at their many chapters include clothing, household items, and jewelry. If you're not sure whether your donations will be accepted, please give them a call beforehand.",
      "state": "Colorado",
      "stateSlug": "colorado",
      "city": "Castle Rock",
      "address": "814 S Perry St, Castle Rock, CO 80104, USA",
      "street": "814 South Perry Street",
      "zip": "80104",
      "coordinates": {
        "lat": 39.362888,
        "lng": -104.859759
      },
      "acceptedMaterials": [
        "Appliances",
        "Books",
        "Clothing",
        "Furniture",
        "Homewares",
        "Toys"
      ],
      "logo": "arc-thrift.jpg",
      "permalink": "https://www.clothedonations.com/colorado/arc-thrift-castle-rock/",
      "lastUpdated": "6/10/2024"
    },
    {
      "id": "17246",
      "title": "Arc Thrift - Castle Rock",
      "company": "Arc Thrift",
      "description": "From its humble beginnings in 1950, Arc Thrift Stores has grown to become a major player in the charitable industry, now running more than 700 chapters around the country.\n\nDonations accepted at their many chapters include clothing, household items, and jewelry. If you're not sure whether your donations will be accepted, please give them a call beforehand.",
      "state": "Colorado",
      "stateSlug": "colorado",
      "city": "Castle Rock",
      "address": "814 S Perry St, Castle Rock, CO 80104, USA",
      "street": "814 South Perry Street",
      "zip": "80104",
      "coordinates": {
        "lat": 39.362888,
        "lng": -104.859759
      },
      "acceptedMaterials": [
        "Appliances",
        "Books",
        "Clothing",
        "Furniture",
        "Homewares",
        "Toys"
      ],
      "logo": "arc-thrift.jpg",
      "permalink": "https://www.clothedonations.com/colorado/arc-thrift-castle-rock-2/",
      "lastUpdated": "6/10/2024"
    },
    {
      "id": "17248",
      "title": "Arc Thrift - Centennial",
      "company": "Arc Thrift",
      "description": "From its humble beginnings in 1950, Arc Thrift Stores has grown to become a major player in the charitable industry, now running more than 700 chapters around the country.\n\nDonations accepted at their many chapters include clothing, household items, and jewelry. If you're not sure whether your donations will be accepted, please give them a call beforehand.",
      "state": "Colorado",
      "stateSlug": "colorado",
      "city": "Centennial",
      "address": "8100 S Quebec St, Centennial, CO 80112, USA",
      "street": "8100 South Quebec Street",
      "zip": "80112",
      "coordinates": {
        "lat": 39.568531,
        "lng": -104.902842
      },
      "acceptedMaterials": [
        "Appliances",
        "Books",
        "Clothing",
        "Furniture",
        "Homewares",
        "Toys"
      ],
      "logo": "arc-thrift.jpg",
      "permalink": "https://www.clothedonations.com/colorado/arc-thrift-centennial/",
      "lastUpdated": "6/10/2024"
    },
    {
      "id": "17249",
      "title": "Arc Thrift - Centennial",
      "company": "Arc Thrift",
      "description": "From its humble beginnings in 1950, Arc Thrift Stores has grown to become a major player in the charitable industry, now running more than 700 chapters around the country.\n\nDonations accepted at their many chapters include clothing, household items, and jewelry. If you're not sure whether your donations will be accepted, please give them a call beforehand.",
      "state": "Colorado",
      "stateSlug": "colorado",
      "city": "Centennial",
      "address": "8100 S Quebec St, Centennial, CO 80112, USA",
      "street": "8100 South Quebec Street",
      "zip": "80112",
      "coordinates": {
        "lat": 39.568531,
        "lng": -104.902842
      },
      "acceptedMaterials": [
        "Appliances",
        "Books",
        "Clothing",
        "Furniture",
        "Homewares",
        "Toys"
      ],
      "logo": "arc-thrift.jpg",
      "permalink": "https://www.clothedonations.com/colorado/arc-thrift-centennial-2/",
      "lastUpdated": "6/10/2024"
    },
    {
      "id": "17256",
      "title": "Arc Thrift - Colorado Springs",
      "company": "Arc Thrift",
      "description": "From its humble beginnings in 1950, Arc Thrift Stores has grown to become a major player in the charitable industry, now running more than 700 chapters around the country.\n\nDonations accepted at their many chapters include clothing, household items, and jewelry. If you're not sure whether your donations will be accepted, please give them a call beforehand.",
      "state": "Colorado",
      "stateSlug": "colorado",
      "city": "Colorado Springs",
      "address": "1830 B W Uintah St, Colorado Springs, CO 80904, USA",
      "street": "West Uintah Street",
      "zip": "80904",
      "coordinates": {
        "lat": 38.850123,
        "lng": -104.848791
      },
      "acceptedMaterials": [
        "Appliances",
        "Books",
        "Clothing",
        "Furniture",
        "Homewares",
        "Toys"
      ],
      "logo": "arc-thrift.jpg",
      "permalink": "https://www.clothedonations.com/colorado/arc-thrift-colorado-springs/",
      "lastUpdated": "6/10/2024"
    },
    {
      "id": "17257",
      "title": "Arc Thrift - Colorado Springs",
      "company": "Arc Thrift",
      "description": "From its humble beginnings in 1950, Arc Thrift Stores has grown to become a major player in the charitable industry, now running more than 700 chapters around the country.\n\nDonations accepted at their many chapters include clothing, household items, and jewelry. If you're not sure whether your donations will be accepted, please give them a call beforehand.",
      "state": "Colorado",
      "stateSlug": "colorado",
      "city": "Colorado Springs",
      "address": "1830 B W Uintah St, Colorado Springs, CO 80904, USA",
      "street": "West Uintah Street",
      "zip": "80904",
      "coordinates": {
        "lat": 38.850123,
        "lng": -104.848791
      },
      "acceptedMaterials": [
        "Appliances",
        "Books",
        "Clothing",
        "Furniture",
        "Homewares",
        "Toys"
      ],
      "logo": "arc-thrift.jpg",
      "permalink": "https://www.clothedonations.com/colorado/arc-thrift-colorado-springs-2/",
      "lastUpdated": "6/10/2024"
    },
    {
      "id": "17258",
      "title": "Arc Thrift - Colorado Springs",
      "company": "Arc Thrift",
      "description": "From its humble beginnings in 1950, Arc Thrift Stores has grown to become a major player in the charitable industry, now running more than 700 chapters around the country.\n\nDonations accepted at their many chapters include clothing, household items, and jewelry. If you're not sure whether your donations will be accepted, please give them a call beforehand.",
      "state": "Colorado",
      "stateSlug": "colorado",
      "city": "Colorado Springs",
      "address": "2780 S Academy Blvd, Colorado Springs, CO 80916, USA",
      "street": "2780 South Academy Boulevard",
      "zip": "80916",
      "coordinates": {
        "lat": 38.792015,
        "lng": -104.75777
      },
      "acceptedMaterials": [
        "Appliances",
        "Books",
        "Clothing",
        "Furniture",
        "Homewares",
        "Toys"
      ],
      "logo": "arc-thrift.jpg",
      "permalink": "https://www.clothedonations.com/colorado/arc-thrift-colorado-springs-3/",
      "lastUpdated": "6/10/2024"
    },
    {
      "id": "17259",
      "title": "Arc Thrift - Colorado Springs",
      "company": "Arc Thrift",
      "description": "From its humble beginnings in 1950, Arc Thrift Stores has grown to become a major player in the charitable industry, now running more than 700 chapters around the country.\n\nDonations accepted at their many chapters include clothing, household items, and jewelry. If you're not sure whether your donations will be accepted, please give them a call beforehand.",
      "state": "Colorado",
      "stateSlug": "colorado",
      "city": "Colorado Springs",
      "address": "2780 S Academy Blvd, Colorado Springs, CO 80916, USA",
      "street": "2780 South Academy Boulevard",
      "zip": "80916",
      "coordinates": {
        "lat": 38.792015,
        "lng": -104.75777
      },
      "acceptedMaterials": [
        "Appliances",
        "Books",
        "Clothing",
        "Furniture",
        "Homewares",
        "Toys"
      ],
      "logo": "arc-thrift.jpg",
      "permalink": "https://www.clothedonations.com/colorado/arc-thrift-colorado-springs-4/",
      "lastUpdated": "6/10/2024"
    },
    {
      "id": "17260",
      "title": "Arc Thrift - Colorado Springs",
      "company": "Arc Thrift",
      "description": "From its humble beginnings in 1950, Arc Thrift Stores has grown to become a major player in the charitable industry, now running more than 700 chapters around the country.\n\nDonations accepted at their many chapters include clothing, household items, and jewelry. If you're not sure whether your donations will be accepted, please give them a call beforehand.",
      "state": "Colorado",
      "stateSlug": "colorado",
      "city": "Colorado Springs",
      "address": "304 S Nevada Ave, Colorado Springs, CO 80903, USA",
      "street": "304 South Nevada Avenue",
      "zip": "80903",
      "coordinates": {
        "lat": 38.82926,
        "lng": -104.822411
      },
      "acceptedMaterials": [
        "Appliances",
        "Books",
        "Clothing",
        "Furniture",
        "Homewares",
        "Toys"
      ],
      "logo": "arc-thrift.jpg",
      "permalink": "https://www.clothedonations.com/colorado/arc-thrift-colorado-springs-5/",
      "lastUpdated": "6/10/2024"
    },
    {
      "id": "17261",
      "title": "Arc Thrift - Colorado Springs",
      "company": "Arc Thrift",
      "description": "From its humble beginnings in 1950, Arc Thrift Stores has grown to become a major player in the charitable industry, now running more than 700 chapters around the country.\n\nDonations accepted at their many chapters include clothing, household items, and jewelry. If you're not sure whether your donations will be accepted, please give them a call beforehand.",
      "state": "Colorado",
      "stateSlug": "colorado",
      "city": "Colorado Springs",
      "address": "304 S Nevada Ave, Colorado Springs, CO 80903, USA",
      "street": "304 South Nevada Avenue",
      "zip": "80903",
      "coordinates": {
        "lat": 38.82926,
        "lng": -104.822411
      },
      "acceptedMaterials": [
        "Appliances",
        "Books",
        "Clothing",
        "Furniture",
        "Homewares",
        "Toys"
      ],
      "logo": "arc-thrift.jpg",
      "permalink": "https://www.clothedonations.com/colorado/arc-thrift-colorado-springs-6/",
      "lastUpdated": "6/10/2024"
    },
    {
      "id": "17262",
      "title": "Arc Thrift - Colorado Springs",
      "company": "Arc Thrift",
      "description": "From its humble beginnings in 1950, Arc Thrift Stores has grown to become a major player in the charitable industry, now running more than 700 chapters around the country.\n\nDonations accepted at their many chapters include clothing, household items, and jewelry. If you're not sure whether your donations will be accepted, please give them a call beforehand.",
      "state": "Colorado",
      "stateSlug": "colorado",
      "city": "Colorado Springs",
      "address": "4215 Centennial Blvd, Colorado Springs, CO 80907, USA",
      "street": "4215 Centennial Boulevard",
      "zip": "80907",
      "coordinates": {
        "lat": 38.893766,
        "lng": -104.851044
      },
      "acceptedMaterials": [
        "Appliances",
        "Books",
        "Clothing",
        "Furniture",
        "Homewares",
        "Toys"
      ],
      "logo": "arc-thrift.jpg",
      "permalink": "https://www.clothedonations.com/colorado/arc-thrift-colorado-springs-7/",
      "lastUpdated": "6/10/2024"
    },
    {
      "id": "17263",
      "title": "Arc Thrift - Colorado Springs",
      "company": "Arc Thrift",
      "description": "From its humble beginnings in 1950, Arc Thrift Stores has grown to become a major player in the charitable industry, now running more than 700 chapters around the country.\n\nDonations accepted at their many chapters include clothing, household items, and jewelry. If you're not sure whether your donations will be accepted, please give them a call beforehand.",
      "state": "Colorado",
      "stateSlug": "colorado",
      "city": "Colorado Springs",
      "address": "4215 Centennial Blvd, Colorado Springs, CO 80907, USA",
      "street": "4215 Centennial Boulevard",
      "zip": "80907",
      "coordinates": {
        "lat": 38.893766,
        "lng": -104.851044
      },
      "acceptedMaterials": [
        "Appliances",
        "Books",
        "Clothing",
        "Furniture",
        "Homewares",
        "Toys"
      ],
      "logo": "arc-thrift.jpg",
      "permalink": "https://www.clothedonations.com/colorado/arc-thrift-colorado-springs-8/",
      "lastUpdated": "6/10/2024"
    },
    {
      "id": "17264",
      "title": "Arc Thrift - Colorado Springs",
      "company": "Arc Thrift",
      "description": "From its humble beginnings in 1950, Arc Thrift Stores has grown to become a major player in the charitable industry, now running more than 700 chapters around the country.\n\nDonations accepted at their many chapters include clothing, household items, and jewelry. If you're not sure whether your donations will be accepted, please give them a call beforehand.",
      "state": "Colorado",
      "stateSlug": "colorado",
      "city": "Colorado Springs",
      "address": "4402 Austin Bluffs Pkwy, Colorado Springs, CO 80918, USA",
      "street": "4402 Austin Bluffs Parkway",
      "zip": "80918",
      "coordinates": {
        "lat": 38.897472,
        "lng": -104.750904
      },
      "acceptedMaterials": [
        "Appliances",
        "Books",
        "Clothing",
        "Furniture",
        "Homewares",
        "Toys"
      ],
      "logo": "arc-thrift.jpg",
      "permalink": "https://www.clothedonations.com/colorado/arc-thrift-colorado-springs-9/",
      "lastUpdated": "6/10/2024"
    },
    {
      "id": "17265",
      "title": "Arc Thrift - Colorado Springs",
      "company": "Arc Thrift",
      "description": "From its humble beginnings in 1950, Arc Thrift Stores has grown to become a major player in the charitable industry, now running more than 700 chapters around the country.\n\nDonations accepted at their many chapters include clothing, household items, and jewelry. If you're not sure whether your donations will be accepted, please give them a call beforehand.",
      "state": "Colorado",
      "stateSlug": "colorado",
      "city": "Colorado Springs",
      "address": "4402 Austin Bluffs Pkwy, Colorado Springs, CO 80918, USA",
      "street": "4402 Austin Bluffs Parkway",
      "zip": "80918",
      "coordinates": {
        "lat": 38.897472,
        "lng": -104.750904
      },
      "acceptedMaterials": [
        "Appliances",
        "Books",
        "Clothing",
        "Furniture",
        "Homewares",
        "Toys"
      ],
      "logo": "arc-thrift.jpg",
      "permalink": "https://www.clothedonations.com/colorado/arc-thrift-colorado-springs-10/",
      "lastUpdated": "6/10/2024"
    },
    {
      "id": "17266",
      "title": "Arc Thrift - Colorado Springs",
      "company": "Arc Thrift",
      "description": "From its humble beginnings in 1950, Arc Thrift Stores has grown to become a major player in the charitable industry, now running more than 700 chapters around the country.\n\nDonations accepted at their many chapters include clothing, household items, and jewelry. If you're not sure whether your donations will be accepted, please give them a call beforehand.",
      "state": "Colorado",
      "stateSlug": "colorado",
      "city": "Colorado Springs",
      "address": "7207 N Academy Blvd, Colorado Springs, CO 80920, USA",
      "street": "North Academy Boulevard",
      "zip": "80920",
      "coordinates": {
        "lat": 38.936353,
        "lng": -104.796127
      },
      "acceptedMaterials": [
        "Appliances",
        "Books",
        "Clothing",
        "Furniture",
        "Homewares",
        "Toys"
      ],
      "logo": "arc-thrift.jpg",
      "permalink": "https://www.clothedonations.com/colorado/arc-thrift-colorado-springs-11/",
      "lastUpdated": "6/10/2024"
    },
    {
      "id": "17267",
      "title": "Arc Thrift - Colorado Springs",
      "company": "Arc Thrift",
      "description": "From its humble beginnings in 1950, Arc Thrift Stores has grown to become a major player in the charitable industry, now running more than 700 chapters around the country.\n\nDonations accepted at their many chapters include clothing, household items, and jewelry. If you're not sure whether your donations will be accepted, please give them a call beforehand.",
      "state": "Colorado",
      "stateSlug": "colorado",
      "city": "Colorado Springs",
      "address": "7207 N Academy Blvd, Colorado Springs, CO 80920, USA",
      "street": "North Academy Boulevard",
      "zip": "80920",
      "coordinates": {
        "lat": 38.936353,
        "lng": -104.796127
      },
      "acceptedMaterials": [
        "Appliances",
        "Books",
        "Clothing",
        "Furniture",
        "Homewares",
        "Toys"
      ],
      "logo": "arc-thrift.jpg",
      "permalink": "https://www.clothedonations.com/colorado/arc-thrift-colorado-springs-12/",
      "lastUpdated": "6/10/2024"
    },
    {
      "id": "17268",
      "title": "Arc Thrift - Colorado Springs",
      "company": "Arc Thrift",
      "description": "From its humble beginnings in 1950, Arc Thrift Stores has grown to become a major player in the charitable industry, now running more than 700 chapters around the country.\n\nDonations accepted at their many chapters include clothing, household items, and jewelry. If you're not sure whether your donations will be accepted, please give them a call beforehand.",
      "state": "Colorado",
      "stateSlug": "colorado",
      "city": "Colorado Springs",
      "address": "815 Briargate Blvd, Colorado Springs, CO 80920, USA",
      "street": "Briargate Boulevard",
      "zip": "80920",
      "coordinates": {
        "lat": 38.945124,
        "lng": -104.800637
      },
      "acceptedMaterials": [
        "Appliances",
        "Books",
        "Clothing",
        "Furniture",
        "Homewares",
        "Toys"
      ],
      "logo": "arc-thrift.jpg",
      "permalink": "https://www.clothedonations.com/colorado/arc-thrift-colorado-springs-13/",
      "lastUpdated": "6/10/2024"
    },
    {
      "id": "17269",
      "title": "Arc Thrift - Colorado Springs",
      "company": "Arc Thrift",
      "description": "From its humble beginnings in 1950, Arc Thrift Stores has grown to become a major player in the charitable industry, now running more than 700 chapters around the country.\n\nDonations accepted at their many chapters include clothing, household items, and jewelry. If you're not sure whether your donations will be accepted, please give them a call beforehand.",
      "state": "Colorado",
      "stateSlug": "colorado",
      "city": "Colorado Springs",
      "address": "815 Briargate Blvd, Colorado Springs, CO 80920, USA",
      "street": "Briargate Boulevard",
      "zip": "80920",
      "coordinates": {
        "lat": 38.945124,
        "lng": -104.800637
      },
      "acceptedMaterials": [
        "Appliances",
        "Books",
        "Clothing",
        "Furniture",
        "Homewares",
        "Toys"
      ],
      "logo": "arc-thrift.jpg",
      "permalink": "https://www.clothedonations.com/colorado/arc-thrift-colorado-springs-14/",
      "lastUpdated": "6/10/2024"
    },
    {
      "id": "17276",
      "title": "Arc Thrift - Denver",
      "company": "Arc Thrift",
      "description": "From its humble beginnings in 1950, Arc Thrift Stores has grown to become a major player in the charitable industry, now running more than 700 chapters around the country.\n\nDonations accepted at their many chapters include clothing, household items, and jewelry. If you're not sure whether your donations will be accepted, please give them a call beforehand.",
      "state": "Colorado",
      "stateSlug": "colorado",
      "city": "Denver",
      "address": "1405 Cortez St, Denver, CO 80221, USA",
      "street": "1405 Cortez Street",
      "zip": "80221",
      "coordinates": {
        "lat": 39.83176,
        "lng": -105.003955
      },
      "acceptedMaterials": [
        "Appliances",
        "Books",
        "Clothing",
        "Furniture",
        "Homewares",
        "Toys"
      ],
      "logo": "arc-thrift.jpg",
      "permalink": "https://www.clothedonations.com/colorado/arc-thrift-denver/",
      "lastUpdated": "6/10/2024"
    },
    {
      "id": "17277",
      "title": "Arc Thrift - Denver",
      "company": "Arc Thrift",
      "description": "From its humble beginnings in 1950, Arc Thrift Stores has grown to become a major player in the charitable industry, now running more than 700 chapters around the country.\n\nDonations accepted at their many chapters include clothing, household items, and jewelry. If you're not sure whether your donations will be accepted, please give them a call beforehand.",
      "state": "Colorado",
      "stateSlug": "colorado",
      "city": "Denver",
      "address": "1405 Cortez St, Denver, CO 80221, USA",
      "street": "1405 Cortez Street",
      "zip": "80221",
      "coordinates": {
        "lat": 39.83176,
        "lng": -105.003955
      },
      "acceptedMaterials": [
        "Appliances",
        "Books",
        "Clothing",
        "Furniture",
        "Homewares",
        "Toys"
      ],
      "logo": "arc-thrift.jpg",
      "permalink": "https://www.clothedonations.com/colorado/arc-thrift-denver-2/",
      "lastUpdated": "6/10/2024"
    },
    {
      "id": "17278",
      "title": "Arc Thrift - Denver",
      "company": "Arc Thrift",
      "description": "From its humble beginnings in 1950, Arc Thrift Stores has grown to become a major player in the charitable industry, now running more than 700 chapters around the country.\n\nDonations accepted at their many chapters include clothing, household items, and jewelry. If you're not sure whether your donations will be accepted, please give them a call beforehand.",
      "state": "Colorado",
      "stateSlug": "colorado",
      "city": "Denver",
      "address": "1515 S Broadway, Denver, CO 80223, USA",
      "street": "1515 South Broadway",
      "zip": "80210",
      "coordinates": {
        "lat": 39.688966,
        "lng": -104.987854
      },
      "acceptedMaterials": [
        "Appliances",
        "Books",
        "Clothing",
        "Furniture",
        "Homewares",
        "Toys"
      ],
      "logo": "arc-thrift.jpg",
      "permalink": "https://www.clothedonations.com/colorado/arc-thrift-denver-3/",
      "lastUpdated": "6/10/2024"
    },
    {
      "id": "17279",
      "title": "Arc Thrift - Denver",
      "company": "Arc Thrift",
      "description": "From its humble beginnings in 1950, Arc Thrift Stores has grown to become a major player in the charitable industry, now running more than 700 chapters around the country.\n\nDonations accepted at their many chapters include clothing, household items, and jewelry. If you're not sure whether your donations will be accepted, please give them a call beforehand.",
      "state": "Colorado",
      "stateSlug": "colorado",
      "city": "Denver",
      "address": "1515 S Broadway, Denver, CO 80223, USA",
      "street": "1515 South Broadway",
      "zip": "80210",
      "coordinates": {
        "lat": 39.688966,
        "lng": -104.987854
      },
      "acceptedMaterials": [
        "Appliances",
        "Books",
        "Clothing",
        "Furniture",
        "Homewares",
        "Toys"
      ],
      "logo": "arc-thrift.jpg",
      "permalink": "https://www.clothedonations.com/colorado/arc-thrift-denver-4/",
      "lastUpdated": "6/10/2024"
    },
    {
      "id": "17280",
      "title": "Arc Thrift - Denver",
      "company": "Arc Thrift",
      "description": "From its humble beginnings in 1950, Arc Thrift Stores has grown to become a major player in the charitable industry, now running more than 700 chapters around the country.\n\nDonations accepted at their many chapters include clothing, household items, and jewelry. If you're not sure whether your donations will be accepted, please give them a call beforehand.",
      "state": "Colorado",
      "stateSlug": "colorado",
      "city": "Denver",
      "address": "2199 S Sheridan Blvd, Denver, CO 80227, USA",
      "street": "2199 South Sheridan Boulevard",
      "zip": "80227",
      "coordinates": {
        "lat": 39.675937,
        "lng": -105.053778
      },
      "acceptedMaterials": [
        "Appliances",
        "Books",
        "Clothing",
        "Furniture",
        "Homewares",
        "Toys"
      ],
      "logo": "arc-thrift.jpg",
      "permalink": "https://www.clothedonations.com/colorado/arc-thrift-denver-5/",
      "lastUpdated": "6/10/2024"
    },
    {
      "id": "17281",
      "title": "Arc Thrift - Denver",
      "company": "Arc Thrift",
      "description": "From its humble beginnings in 1950, Arc Thrift Stores has grown to become a major player in the charitable industry, now running more than 700 chapters around the country.\n\nDonations accepted at their many chapters include clothing, household items, and jewelry. If you're not sure whether your donations will be accepted, please give them a call beforehand.",
      "state": "Colorado",
      "stateSlug": "colorado",
      "city": "Denver",
      "address": "2199 S Sheridan Blvd, Denver, CO 80227, USA",
      "street": "2199 South Sheridan Boulevard",
      "zip": "80227",
      "coordinates": {
        "lat": 39.675937,
        "lng": -105.053778
      },
      "acceptedMaterials": [
        "Appliances",
        "Books",
        "Clothing",
        "Furniture",
        "Homewares",
        "Toys"
      ],
      "logo": "arc-thrift.jpg",
      "permalink": "https://www.clothedonations.com/colorado/arc-thrift-denver-6/",
      "lastUpdated": "6/10/2024"
    },
    {
      "id": "17282",
      "title": "Arc Thrift - Denver",
      "company": "Arc Thrift",
      "description": "From its humble beginnings in 1950, Arc Thrift Stores has grown to become a major player in the charitable industry, now running more than 700 chapters around the country.\n\nDonations accepted at their many chapters include clothing, household items, and jewelry. If you're not sure whether your donations will be accepted, please give them a call beforehand.",
      "state": "Colorado",
      "stateSlug": "colorado",
      "city": "Denver",
      "address": "255 S Hooker St, Denver, CO 80219, USA",
      "street": "255 South Hooker Street",
      "zip": "80219",
      "coordinates": {
        "lat": 39.711931,
        "lng": -105.029168
      },
      "acceptedMaterials": [
        "Appliances",
        "Books",
        "Clothing",
        "Furniture",
        "Homewares",
        "Toys"
      ],
      "logo": "arc-thrift.jpg",
      "permalink": "https://www.clothedonations.com/colorado/arc-thrift-denver-7/",
      "lastUpdated": "6/10/2024"
    },
    {
      "id": "17283",
      "title": "Arc Thrift - Denver",
      "company": "Arc Thrift",
      "description": "From its humble beginnings in 1950, Arc Thrift Stores has grown to become a major player in the charitable industry, now running more than 700 chapters around the country.\n\nDonations accepted at their many chapters include clothing, household items, and jewelry. If you're not sure whether your donations will be accepted, please give them a call beforehand.",
      "state": "Colorado",
      "stateSlug": "colorado",
      "city": "Denver",
      "address": "255 S Hooker St, Denver, CO 80219, USA",
      "street": "255 South Hooker Street",
      "zip": "80219",
      "coordinates": {
        "lat": 39.711931,
        "lng": -105.029168
      },
      "acceptedMaterials": [
        "Appliances",
        "Books",
        "Clothing",
        "Furniture",
        "Homewares",
        "Toys"
      ],
      "logo": "arc-thrift.jpg",
      "permalink": "https://www.clothedonations.com/colorado/arc-thrift-denver-8/",
      "lastUpdated": "6/10/2024"
    },
    {
      "id": "17284",
      "title": "Arc Thrift - Denver",
      "company": "Arc Thrift",
      "description": "From its humble beginnings in 1950, Arc Thrift Stores has grown to become a major player in the charitable industry, now running more than 700 chapters around the country.\n\nDonations accepted at their many chapters include clothing, household items, and jewelry. If you're not sure whether your donations will be accepted, please give them a call beforehand.",
      "state": "Colorado",
      "stateSlug": "colorado",
      "city": "Denver",
      "address": "7485 E Iliff Ave, Denver, CO 80231, USA",
      "street": "7485 East Iliff Avenue",
      "zip": "80231",
      "coordinates": {
        "lat": 39.675673,
        "lng": -104.902269
      },
      "acceptedMaterials": [
        "Appliances",
        "Books",
        "Clothing",
        "Furniture",
        "Homewares",
        "Toys"
      ],
      "logo": "arc-thrift.jpg",
      "permalink": "https://www.clothedonations.com/colorado/arc-thrift-denver-9/",
      "lastUpdated": "6/10/2024"
    },
    {
      "id": "17285",
      "title": "Arc Thrift - Denver",
      "company": "Arc Thrift",
      "description": "From its humble beginnings in 1950, Arc Thrift Stores has grown to become a major player in the charitable industry, now running more than 700 chapters around the country.\n\nDonations accepted at their many chapters include clothing, household items, and jewelry. If you're not sure whether your donations will be accepted, please give them a call beforehand.",
      "state": "Colorado",
      "stateSlug": "colorado",
      "city": "Denver",
      "address": "7485 E Iliff Ave, Denver, CO 80231, USA",
      "street": "7485 East Iliff Avenue",
      "zip": "80231",
      "coordinates": {
        "lat": 39.675673,
        "lng": -104.902269
      },
      "acceptedMaterials": [
        "Appliances",
        "Books",
        "Clothing",
        "Furniture",
        "Homewares",
        "Toys"
      ],
      "logo": "arc-thrift.jpg",
      "permalink": "https://www.clothedonations.com/colorado/arc-thrift-denver-10/",
      "lastUpdated": "6/10/2024"
    },
    {
      "id": "17298",
      "title": "Arc Thrift - Federal Heights",
      "company": "Arc Thrift",
      "description": "From its humble beginnings in 1950, Arc Thrift Stores has grown to become a major player in the charitable industry, now running more than 700 chapters around the country.\n\nDonations accepted at their many chapters include clothing, household items, and jewelry. If you're not sure whether your donations will be accepted, please give them a call beforehand.",
      "state": "Colorado",
      "stateSlug": "colorado",
      "city": "Unknown",
      "address": "10250 Federal Blvd, Federal Heights, CO 80260, USA",
      "street": "10250 Federal Boulevard",
      "zip": "80260",
      "coordinates": {
        "lat": 39.882883,
        "lng": -105.023901
      },
      "acceptedMaterials": [
        "Appliances",
        "Books",
        "Clothing",
        "Furniture",
        "Homewares",
        "Toys"
      ],
      "logo": "arc-thrift.jpg",
      "permalink": "https://www.clothedonations.com/colorado/arc-thrift-federal-heights/",
      "lastUpdated": "6/10/2024"
    },
    {
      "id": "17299",
      "title": "Arc Thrift - Federal Heights",
      "company": "Arc Thrift",
      "description": "From its humble beginnings in 1950, Arc Thrift Stores has grown to become a major player in the charitable industry, now running more than 700 chapters around the country.\n\nDonations accepted at their many chapters include clothing, household items, and jewelry. If you're not sure whether your donations will be accepted, please give them a call beforehand.",
      "state": "Colorado",
      "stateSlug": "colorado",
      "city": "Unknown",
      "address": "10250 Federal Blvd, Federal Heights, CO 80260, USA",
      "street": "10250 Federal Boulevard",
      "zip": "80260",
      "coordinates": {
        "lat": 39.882883,
        "lng": -105.023901
      },
      "acceptedMaterials": [
        "Appliances",
        "Books",
        "Clothing",
        "Furniture",
        "Homewares",
        "Toys"
      ],
      "logo": "arc-thrift.jpg",
      "permalink": "https://www.clothedonations.com/colorado/arc-thrift-federal-heights-2/",
      "lastUpdated": "6/10/2024"
    },
    {
      "id": "17300",
      "title": "Arc Thrift - Fort Collins",
      "company": "Arc Thrift",
      "description": "From its humble beginnings in 1950, Arc Thrift Stores has grown to become a major player in the charitable industry, now running more than 700 chapters around the country.\n\nDonations accepted at their many chapters include clothing, household items, and jewelry. If you're not sure whether your donations will be accepted, please give them a call beforehand.",
      "state": "Colorado",
      "stateSlug": "colorado",
      "city": "Fort Collins",
      "address": "2701 S College Ave, Fort Collins, CO 80525, USA",
      "street": "2701 South College Avenue",
      "zip": "80525",
      "coordinates": {
        "lat": 40.550488,
        "lng": -105.079042
      },
      "acceptedMaterials": [
        "Appliances",
        "Books",
        "Clothing",
        "Furniture",
        "Homewares",
        "Toys"
      ],
      "logo": "arc-thrift.jpg",
      "permalink": "https://www.clothedonations.com/colorado/arc-thrift-fort-collins/",
      "lastUpdated": "6/10/2024"
    },
    {
      "id": "17301",
      "title": "Arc Thrift - Fort Collins",
      "company": "Arc Thrift",
      "description": "From its humble beginnings in 1950, Arc Thrift Stores has grown to become a major player in the charitable industry, now running more than 700 chapters around the country.\n\nDonations accepted at their many chapters include clothing, household items, and jewelry. If you're not sure whether your donations will be accepted, please give them a call beforehand.",
      "state": "Colorado",
      "stateSlug": "colorado",
      "city": "Fort Collins",
      "address": "2701 S College Ave, Fort Collins, CO 80525, USA",
      "street": "2701 South College Avenue",
      "zip": "80525",
      "coordinates": {
        "lat": 40.550488,
        "lng": -105.079042
      },
      "acceptedMaterials": [
        "Appliances",
        "Books",
        "Clothing",
        "Furniture",
        "Homewares",
        "Toys"
      ],
      "logo": "arc-thrift.jpg",
      "permalink": "https://www.clothedonations.com/colorado/arc-thrift-fort-collins-2/",
      "lastUpdated": "6/10/2024"
    },
    {
      "id": "17312",
      "title": "Arc Thrift - Golden",
      "company": "Arc Thrift",
      "description": "From its humble beginnings in 1950, Arc Thrift Stores has grown to become a major player in the charitable industry, now running more than 700 chapters around the country.\n\nDonations accepted at their many chapters include clothing, household items, and jewelry. If you're not sure whether your donations will be accepted, please give them a call beforehand.",
      "state": "Colorado",
      "stateSlug": "colorado",
      "city": "Golden",
      "address": "2600 East St, Golden, CO 80401, USA",
      "street": "2600 East Street",
      "zip": "80401",
      "coordinates": {
        "lat": 39.746155,
        "lng": -105.207551
      },
      "acceptedMaterials": [
        "Appliances",
        "Books",
        "Clothing",
        "Furniture",
        "Homewares",
        "Toys"
      ],
      "logo": "arc-thrift.jpg",
      "permalink": "https://www.clothedonations.com/colorado/arc-thrift-golden/",
      "lastUpdated": "6/10/2024"
    },
    {
      "id": "17313",
      "title": "Arc Thrift - Golden",
      "company": "Arc Thrift",
      "description": "From its humble beginnings in 1950, Arc Thrift Stores has grown to become a major player in the charitable industry, now running more than 700 chapters around the country.\n\nDonations accepted at their many chapters include clothing, household items, and jewelry. If you're not sure whether your donations will be accepted, please give them a call beforehand.",
      "state": "Colorado",
      "stateSlug": "colorado",
      "city": "Golden",
      "address": "2600 East St, Golden, CO 80401, USA",
      "street": "2600 East Street",
      "zip": "80401",
      "coordinates": {
        "lat": 39.746155,
        "lng": -105.207551
      },
      "acceptedMaterials": [
        "Appliances",
        "Books",
        "Clothing",
        "Furniture",
        "Homewares",
        "Toys"
      ],
      "logo": "arc-thrift.jpg",
      "permalink": "https://www.clothedonations.com/colorado/arc-thrift-golden-2/",
      "lastUpdated": "6/10/2024"
    },
    {
      "id": "17314",
      "title": "Arc Thrift - Grand Junction",
      "company": "Arc Thrift",
      "description": "From its humble beginnings in 1950, Arc Thrift Stores has grown to become a major player in the charitable industry, now running more than 700 chapters around the country.\n\nDonations accepted at their many chapters include clothing, household items, and jewelry. If you're not sure whether your donations will be accepted, please give them a call beforehand.",
      "state": "Colorado",
      "stateSlug": "colorado",
      "city": "Grand Junction",
      "address": "2830 North Ave, Grand Junction, CO 81501, USA",
      "street": "2830 North Avenue",
      "zip": "81501",
      "coordinates": {
        "lat": 39.078636,
        "lng": -108.52758
      },
      "acceptedMaterials": [
        "Appliances",
        "Books",
        "Clothing",
        "Furniture",
        "Homewares",
        "Toys"
      ],
      "logo": "arc-thrift.jpg",
      "permalink": "https://www.clothedonations.com/colorado/arc-thrift-grand-junction/",
      "lastUpdated": "6/10/2024"
    },
    {
      "id": "17315",
      "title": "Arc Thrift - Grand Junction",
      "company": "Arc Thrift",
      "description": "From its humble beginnings in 1950, Arc Thrift Stores has grown to become a major player in the charitable industry, now running more than 700 chapters around the country.\n\nDonations accepted at their many chapters include clothing, household items, and jewelry. If you're not sure whether your donations will be accepted, please give them a call beforehand.",
      "state": "Colorado",
      "stateSlug": "colorado",
      "city": "Grand Junction",
      "address": "2830 North Ave, Grand Junction, CO 81501, USA",
      "street": "2830 North Avenue",
      "zip": "81501",
      "coordinates": {
        "lat": 39.078636,
        "lng": -108.52758
      },
      "acceptedMaterials": [
        "Appliances",
        "Books",
        "Clothing",
        "Furniture",
        "Homewares",
        "Toys"
      ],
      "logo": "arc-thrift.jpg",
      "permalink": "https://www.clothedonations.com/colorado/arc-thrift-grand-junction-2/",
      "lastUpdated": "6/10/2024"
    },
    {
      "id": "17316",
      "title": "Arc Thrift - Greeley",
      "company": "Arc Thrift",
      "description": "From its humble beginnings in 1950, Arc Thrift Stores has grown to become a major player in the charitable industry, now running more than 700 chapters around the country.\n\nDonations accepted at their many chapters include clothing, household items, and jewelry. If you're not sure whether your donations will be accepted, please give them a call beforehand.",
      "state": "Colorado",
      "stateSlug": "colorado",
      "city": "Greeley",
      "address": "2401 27th St, Greeley, CO 80634, USA",
      "street": "2401 27th Street",
      "zip": "80641",
      "coordinates": {
        "lat": 40.394433,
        "lng": -104.719009
      },
      "acceptedMaterials": [
        "Appliances",
        "Books",
        "Clothing",
        "Furniture",
        "Homewares",
        "Toys"
      ],
      "logo": "arc-thrift.jpg",
      "permalink": "https://www.clothedonations.com/colorado/arc-thrift-greeley/",
      "lastUpdated": "6/10/2024"
    },
    {
      "id": "17317",
      "title": "Arc Thrift - Greeley",
      "company": "Arc Thrift",
      "description": "From its humble beginnings in 1950, Arc Thrift Stores has grown to become a major player in the charitable industry, now running more than 700 chapters around the country.\n\nDonations accepted at their many chapters include clothing, household items, and jewelry. If you're not sure whether your donations will be accepted, please give them a call beforehand.",
      "state": "Colorado",
      "stateSlug": "colorado",
      "city": "Greeley",
      "address": "2401 27th St, Greeley, CO 80634, USA",
      "street": "2401 27th Street",
      "zip": "80641",
      "coordinates": {
        "lat": 40.394433,
        "lng": -104.719009
      },
      "acceptedMaterials": [
        "Appliances",
        "Books",
        "Clothing",
        "Furniture",
        "Homewares",
        "Toys"
      ],
      "logo": "arc-thrift.jpg",
      "permalink": "https://www.clothedonations.com/colorado/arc-thrift-greeley-2/",
      "lastUpdated": "6/10/2024"
    },
    {
      "id": "17318",
      "title": "Arc Thrift - Greeley",
      "company": "Arc Thrift",
      "description": "From its humble beginnings in 1950, Arc Thrift Stores has grown to become a major player in the charitable industry, now running more than 700 chapters around the country.\n\nDonations accepted at their many chapters include clothing, household items, and jewelry. If you're not sure whether your donations will be accepted, please give them a call beforehand.",
      "state": "Colorado",
      "stateSlug": "colorado",
      "city": "Greeley",
      "address": "3725 W 10th St, Greeley, CO 80634, USA",
      "street": "3725 West 10th Street",
      "zip": "80634",
      "coordinates": {
        "lat": 40.422772,
        "lng": -104.740462
      },
      "acceptedMaterials": [
        "Appliances",
        "Books",
        "Clothing",
        "Furniture",
        "Homewares",
        "Toys"
      ],
      "logo": "arc-thrift.jpg",
      "permalink": "https://www.clothedonations.com/colorado/arc-thrift-greeley-3/",
      "lastUpdated": "6/10/2024"
    },
    {
      "id": "17319",
      "title": "Arc Thrift - Greeley",
      "company": "Arc Thrift",
      "description": "From its humble beginnings in 1950, Arc Thrift Stores has grown to become a major player in the charitable industry, now running more than 700 chapters around the country.\n\nDonations accepted at their many chapters include clothing, household items, and jewelry. If you're not sure whether your donations will be accepted, please give them a call beforehand.",
      "state": "Colorado",
      "stateSlug": "colorado",
      "city": "Greeley",
      "address": "3725 W 10th St, Greeley, CO 80634, USA",
      "street": "3725 West 10th Street",
      "zip": "80634",
      "coordinates": {
        "lat": 40.422772,
        "lng": -104.740462
      },
      "acceptedMaterials": [
        "Appliances",
        "Books",
        "Clothing",
        "Furniture",
        "Homewares",
        "Toys"
      ],
      "logo": "arc-thrift.jpg",
      "permalink": "https://www.clothedonations.com/colorado/arc-thrift-greeley-4/",
      "lastUpdated": "6/10/2024"
    },
    {
      "id": "17336",
      "title": "Arc Thrift - Lakewood",
      "company": "Arc Thrift",
      "description": "From its humble beginnings in 1950, Arc Thrift Stores has grown to become a major player in the charitable industry, now running more than 700 chapters around the country.\n\nDonations accepted at their many chapters include clothing, household items, and jewelry. If you're not sure whether your donations will be accepted, please give them a call beforehand.",
      "state": "Colorado",
      "stateSlug": "colorado",
      "city": "Lakewood",
      "address": "10798 W Jewell Ave, Lakewood, CO 80232, USA",
      "street": "10798 West Jewell Avenue",
      "zip": "80232",
      "coordinates": {
        "lat": 39.681768,
        "lng": -105.117604
      },
      "acceptedMaterials": [
        "Appliances",
        "Books",
        "Clothing",
        "Furniture",
        "Homewares",
        "Toys"
      ],
      "logo": "arc-thrift.jpg",
      "permalink": "https://www.clothedonations.com/colorado/arc-thrift-lakewood/",
      "lastUpdated": "6/10/2024"
    },
    {
      "id": "17337",
      "title": "Arc Thrift - Lakewood",
      "company": "Arc Thrift",
      "description": "From its humble beginnings in 1950, Arc Thrift Stores has grown to become a major player in the charitable industry, now running more than 700 chapters around the country.\n\nDonations accepted at their many chapters include clothing, household items, and jewelry. If you're not sure whether your donations will be accepted, please give them a call beforehand.",
      "state": "Colorado",
      "stateSlug": "colorado",
      "city": "Lakewood",
      "address": "10798 W Jewell Ave, Lakewood, CO 80232, USA",
      "street": "10798 West Jewell Avenue",
      "zip": "80232",
      "coordinates": {
        "lat": 39.681768,
        "lng": -105.117604
      },
      "acceptedMaterials": [
        "Appliances",
        "Books",
        "Clothing",
        "Furniture",
        "Homewares",
        "Toys"
      ],
      "logo": "arc-thrift.jpg",
      "permalink": "https://www.clothedonations.com/colorado/arc-thrift-lakewood-2/",
      "lastUpdated": "6/10/2024"
    },
    {
      "id": "17338",
      "title": "Arc Thrift - Lakewood",
      "company": "Arc Thrift",
      "description": "From its humble beginnings in 1950, Arc Thrift Stores has grown to become a major player in the charitable industry, now running more than 700 chapters around the country.\n\nDonations accepted at their many chapters include clothing, household items, and jewelry. If you're not sure whether your donations will be accepted, please give them a call beforehand.",
      "state": "Colorado",
      "stateSlug": "colorado",
      "city": "Lakewood",
      "address": "11900 W Alameda Pkwy, Lakewood, CO 80228, USA",
      "street": "11900 West Alameda Parkway",
      "zip": "80228",
      "coordinates": {
        "lat": 39.709935,
        "lng": -105.130784
      },
      "acceptedMaterials": [
        "Appliances",
        "Books",
        "Clothing",
        "Furniture",
        "Homewares",
        "Toys"
      ],
      "logo": "arc-thrift.jpg",
      "permalink": "https://www.clothedonations.com/colorado/arc-thrift-lakewood-3/",
      "lastUpdated": "6/10/2024"
    },
    {
      "id": "17339",
      "title": "Arc Thrift - Lakewood",
      "company": "Arc Thrift",
      "description": "From its humble beginnings in 1950, Arc Thrift Stores has grown to become a major player in the charitable industry, now running more than 700 chapters around the country.\n\nDonations accepted at their many chapters include clothing, household items, and jewelry. If you're not sure whether your donations will be accepted, please give them a call beforehand.",
      "state": "Colorado",
      "stateSlug": "colorado",
      "city": "Lakewood",
      "address": "11900 W Alameda Pkwy, Lakewood, CO 80228, USA",
      "street": "11900 West Alameda Parkway",
      "zip": "80228",
      "coordinates": {
        "lat": 39.709935,
        "lng": -105.130784
      },
      "acceptedMaterials": [
        "Appliances",
        "Books",
        "Clothing",
        "Furniture",
        "Homewares",
        "Toys"
      ],
      "logo": "arc-thrift.jpg",
      "permalink": "https://www.clothedonations.com/colorado/arc-thrift-lakewood-4/",
      "lastUpdated": "6/10/2024"
    },
    {
      "id": "17340",
      "title": "Arc Thrift - Lakewood",
      "company": "Arc Thrift",
      "description": "From its humble beginnings in 1950, Arc Thrift Stores has grown to become a major player in the charitable industry, now running more than 700 chapters around the country.\n\nDonations accepted at their many chapters include clothing, household items, and jewelry. If you're not sure whether your donations will be accepted, please give them a call beforehand.",
      "state": "Colorado",
      "stateSlug": "colorado",
      "city": "Lakewood",
      "address": "12039 W Alameda Pkwy, Lakewood, CO 80228, USA",
      "street": "12039 West Alameda Parkway",
      "zip": "80228",
      "coordinates": {
        "lat": 39.70996,
        "lng": -105.137408
      },
      "acceptedMaterials": [
        "Appliances",
        "Books",
        "Clothing",
        "Furniture",
        "Homewares",
        "Toys"
      ],
      "logo": "arc-thrift.jpg",
      "permalink": "https://www.clothedonations.com/colorado/arc-thrift-lakewood-5/",
      "lastUpdated": "6/10/2024"
    },
    {
      "id": "17341",
      "title": "Arc Thrift - Lakewood",
      "company": "Arc Thrift",
      "description": "From its humble beginnings in 1950, Arc Thrift Stores has grown to become a major player in the charitable industry, now running more than 700 chapters around the country.\n\nDonations accepted at their many chapters include clothing, household items, and jewelry. If you're not sure whether your donations will be accepted, please give them a call beforehand.",
      "state": "Colorado",
      "stateSlug": "colorado",
      "city": "Lakewood",
      "address": "12039 W Alameda Pkwy, Lakewood, CO 80228, USA",
      "street": "12039 West Alameda Parkway",
      "zip": "80228",
      "coordinates": {
        "lat": 39.70996,
        "lng": -105.137408
      },
      "acceptedMaterials": [
        "Appliances",
        "Books",
        "Clothing",
        "Furniture",
        "Homewares",
        "Toys"
      ],
      "logo": "arc-thrift.jpg",
      "permalink": "https://www.clothedonations.com/colorado/arc-thrift-lakewood-6/",
      "lastUpdated": "6/10/2024"
    },
    {
      "id": "17342",
      "title": "Arc Thrift - Lakewood",
      "company": "Arc Thrift",
      "description": "From its humble beginnings in 1950, Arc Thrift Stores has grown to become a major player in the charitable industry, now running more than 700 chapters around the country.\n\nDonations accepted at their many chapters include clothing, household items, and jewelry. If you're not sure whether your donations will be accepted, please give them a call beforehand.",
      "state": "Colorado",
      "stateSlug": "colorado",
      "city": "Lakewood",
      "address": "6791 W Colfax Ave, Lakewood, CO 80214, United States",
      "street": "6791 West Colfax Avenue",
      "zip": "80214",
      "coordinates": {
        "lat": 39.741234,
        "lng": -105.071508
      },
      "acceptedMaterials": [
        "Appliances",
        "Books",
        "Clothing",
        "Furniture",
        "Homewares",
        "Toys"
      ],
      "logo": "arc-thrift.jpg",
      "permalink": "https://www.clothedonations.com/colorado/arc-thrift-lakewood-7/",
      "lastUpdated": "6/10/2024"
    },
    {
      "id": "17343",
      "title": "Arc Thrift - Lakewood",
      "company": "Arc Thrift",
      "description": "From its humble beginnings in 1950, Arc Thrift Stores has grown to become a major player in the charitable industry, now running more than 700 chapters around the country.\n\nDonations accepted at their many chapters include clothing, household items, and jewelry. If you're not sure whether your donations will be accepted, please give them a call beforehand.",
      "state": "Colorado",
      "stateSlug": "colorado",
      "city": "Lakewood",
      "address": "6791 W Colfax Ave, Lakewood, CO 80214, United States",
      "street": "6791 West Colfax Avenue",
      "zip": "80214",
      "coordinates": {
        "lat": 39.741234,
        "lng": -105.071508
      },
      "acceptedMaterials": [
        "Appliances",
        "Books",
        "Clothing",
        "Furniture",
        "Homewares",
        "Toys"
      ],
      "logo": "arc-thrift.jpg",
      "permalink": "https://www.clothedonations.com/colorado/arc-thrift-lakewood-8/",
      "lastUpdated": "6/10/2024"
    },
    {
      "id": "17344",
      "title": "Arc Thrift - Lakewood",
      "company": "Arc Thrift",
      "description": "From its humble beginnings in 1950, Arc Thrift Stores has grown to become a major player in the charitable industry, now running more than 700 chapters around the country.\n\nDonations accepted at their many chapters include clothing, household items, and jewelry. If you're not sure whether your donations will be accepted, please give them a call beforehand.",
      "state": "Colorado",
      "stateSlug": "colorado",
      "city": "Lakewood",
      "address": "7677 W Jewell Ave, Lakewood, CO 80232, USA",
      "street": "7677 West Jewell Avenue",
      "zip": "80232",
      "coordinates": {
        "lat": 39.683938,
        "lng": -105.082901
      },
      "acceptedMaterials": [
        "Appliances",
        "Books",
        "Clothing",
        "Furniture",
        "Homewares",
        "Toys"
      ],
      "logo": "arc-thrift.jpg",
      "permalink": "https://www.clothedonations.com/colorado/arc-thrift-lakewood-9/",
      "lastUpdated": "6/10/2024"
    },
    {
      "id": "17345",
      "title": "Arc Thrift - Lakewood",
      "company": "Arc Thrift",
      "description": "From its humble beginnings in 1950, Arc Thrift Stores has grown to become a major player in the charitable industry, now running more than 700 chapters around the country.\n\nDonations accepted at their many chapters include clothing, household items, and jewelry. If you're not sure whether your donations will be accepted, please give them a call beforehand.",
      "state": "Colorado",
      "stateSlug": "colorado",
      "city": "Lakewood",
      "address": "7677 W Jewell Ave, Lakewood, CO 80232, USA",
      "street": "7677 West Jewell Avenue",
      "zip": "80232",
      "coordinates": {
        "lat": 39.683938,
        "lng": -105.082901
      },
      "acceptedMaterials": [
        "Appliances",
        "Books",
        "Clothing",
        "Furniture",
        "Homewares",
        "Toys"
      ],
      "logo": "arc-thrift.jpg",
      "permalink": "https://www.clothedonations.com/colorado/arc-thrift-lakewood-10/",
      "lastUpdated": "6/10/2024"
    },
    {
      "id": "17359",
      "title": "Arc Thrift - Littleton",
      "company": "Arc Thrift",
      "description": "From its humble beginnings in 1950, Arc Thrift Stores has grown to become a major player in the charitable industry, now running more than 700 chapters around the country.\n\nDonations accepted at their many chapters include clothing, household items, and jewelry. If you're not sure whether your donations will be accepted, please give them a call beforehand.",
      "state": "Colorado",
      "stateSlug": "colorado",
      "city": "Unknown",
      "address": "12402 W Ken Caryl Ave, Littleton, CO 80127, USA",
      "street": "West Ken Caryl Avenue",
      "zip": "80128",
      "coordinates": {
        "lat": 39.579151,
        "lng": -105.134484
      },
      "acceptedMaterials": [
        "Appliances",
        "Books",
        "Clothing",
        "Furniture",
        "Homewares",
        "Toys"
      ],
      "logo": "arc-thrift.jpg",
      "permalink": "https://www.clothedonations.com/colorado/arc-thrift-littleton/",
      "lastUpdated": "6/10/2024"
    },
    {
      "id": "17360",
      "title": "Arc Thrift - Littleton",
      "company": "Arc Thrift",
      "description": "From its humble beginnings in 1950, Arc Thrift Stores has grown to become a major player in the charitable industry, now running more than 700 chapters around the country.\n\nDonations accepted at their many chapters include clothing, household items, and jewelry. If you're not sure whether your donations will be accepted, please give them a call beforehand.",
      "state": "Colorado",
      "stateSlug": "colorado",
      "city": "Unknown",
      "address": "12402 W Ken Caryl Ave, Littleton, CO 80127, USA",
      "street": "West Ken Caryl Avenue",
      "zip": "80128",
      "coordinates": {
        "lat": 39.579151,
        "lng": -105.134484
      },
      "acceptedMaterials": [
        "Appliances",
        "Books",
        "Clothing",
        "Furniture",
        "Homewares",
        "Toys"
      ],
      "logo": "arc-thrift.jpg",
      "permalink": "https://www.clothedonations.com/colorado/arc-thrift-littleton-2/",
      "lastUpdated": "6/10/2024"
    },
    {
      "id": "17361",
      "title": "Arc Thrift - Littleton",
      "company": "Arc Thrift",
      "description": "From its humble beginnings in 1950, Arc Thrift Stores has grown to become a major player in the charitable industry, now running more than 700 chapters around the country.\n\nDonations accepted at their many chapters include clothing, household items, and jewelry. If you're not sure whether your donations will be accepted, please give them a call beforehand.",
      "state": "Colorado",
      "stateSlug": "colorado",
      "city": "Unknown",
      "address": "1400 W Littleton Blvd, Littleton, CO 80120, USA",
      "street": "1400 West Littleton Boulevard",
      "zip": "80120",
      "coordinates": {
        "lat": 39.612153,
        "lng": -105.00488
      },
      "acceptedMaterials": [
        "Appliances",
        "Books",
        "Clothing",
        "Furniture",
        "Homewares",
        "Toys"
      ],
      "logo": "arc-thrift.jpg",
      "permalink": "https://www.clothedonations.com/colorado/arc-thrift-littleton-3/",
      "lastUpdated": "6/10/2024"
    },
    {
      "id": "17362",
      "title": "Arc Thrift - Littleton",
      "company": "Arc Thrift",
      "description": "From its humble beginnings in 1950, Arc Thrift Stores has grown to become a major player in the charitable industry, now running more than 700 chapters around the country.\n\nDonations accepted at their many chapters include clothing, household items, and jewelry. If you're not sure whether your donations will be accepted, please give them a call beforehand.",
      "state": "Colorado",
      "stateSlug": "colorado",
      "city": "Unknown",
      "address": "1400 W Littleton Blvd, Littleton, CO 80120, USA",
      "street": "1400 West Littleton Boulevard",
      "zip": "80120",
      "coordinates": {
        "lat": 39.612153,
        "lng": -105.00488
      },
      "acceptedMaterials": [
        "Appliances",
        "Books",
        "Clothing",
        "Furniture",
        "Homewares",
        "Toys"
      ],
      "logo": "arc-thrift.jpg",
      "permalink": "https://www.clothedonations.com/colorado/arc-thrift-littleton-4/",
      "lastUpdated": "6/10/2024"
    },
    {
      "id": "17363",
      "title": "Arc Thrift - Littleton",
      "company": "Arc Thrift",
      "description": "From its humble beginnings in 1950, Arc Thrift Stores has grown to become a major player in the charitable industry, now running more than 700 chapters around the country.\n\nDonations accepted at their many chapters include clothing, household items, and jewelry. If you're not sure whether your donations will be accepted, please give them a call beforehand.",
      "state": "Colorado",
      "stateSlug": "colorado",
      "city": "Unknown",
      "address": "8996 W Bowles Ave, Littleton, CO 80123, USA",
      "street": "8996 West Bowles Avenue",
      "zip": "80123",
      "coordinates": {
        "lat": 39.608104,
        "lng": -105.097666
      },
      "acceptedMaterials": [
        "Appliances",
        "Books",
        "Clothing",
        "Furniture",
        "Homewares",
        "Toys"
      ],
      "logo": "arc-thrift.jpg",
      "permalink": "https://www.clothedonations.com/colorado/arc-thrift-littleton-5/",
      "lastUpdated": "6/10/2024"
    },
    {
      "id": "17364",
      "title": "Arc Thrift - Littleton",
      "company": "Arc Thrift",
      "description": "From its humble beginnings in 1950, Arc Thrift Stores has grown to become a major player in the charitable industry, now running more than 700 chapters around the country.\n\nDonations accepted at their many chapters include clothing, household items, and jewelry. If you're not sure whether your donations will be accepted, please give them a call beforehand.",
      "state": "Colorado",
      "stateSlug": "colorado",
      "city": "Unknown",
      "address": "8996 W Bowles Ave, Littleton, CO 80123, USA",
      "street": "8996 West Bowles Avenue",
      "zip": "80123",
      "coordinates": {
        "lat": 39.608104,
        "lng": -105.097666
      },
      "acceptedMaterials": [
        "Appliances",
        "Books",
        "Clothing",
        "Furniture",
        "Homewares",
        "Toys"
      ],
      "logo": "arc-thrift.jpg",
      "permalink": "https://www.clothedonations.com/colorado/arc-thrift-littleton-6/",
      "lastUpdated": "6/10/2024"
    },
    {
      "id": "17365",
      "title": "Arc Thrift - Lone Tree",
      "company": "Arc Thrift",
      "description": "From its humble beginnings in 1950, Arc Thrift Stores has grown to become a major player in the charitable industry, now running more than 700 chapters around the country.\n\nDonations accepted at their many chapters include clothing, household items, and jewelry. If you're not sure whether your donations will be accepted, please give them a call beforehand.",
      "state": "Colorado",
      "stateSlug": "colorado",
      "city": "Unknown",
      "address": "8878 Maximus Dr, Lone Tree, CO 80124, USA",
      "street": "8878 Maximus Drive",
      "zip": "80124",
      "coordinates": {
        "lat": 39.554084,
        "lng": -104.885399
      },
      "acceptedMaterials": [
        "Appliances",
        "Books",
        "Clothing",
        "Furniture",
        "Homewares",
        "Toys"
      ],
      "logo": "arc-thrift.jpg",
      "permalink": "https://www.clothedonations.com/colorado/arc-thrift-lone-tree/",
      "lastUpdated": "6/10/2024"
    },
    {
      "id": "17366",
      "title": "Arc Thrift - Lone Tree",
      "company": "Arc Thrift",
      "description": "From its humble beginnings in 1950, Arc Thrift Stores has grown to become a major player in the charitable industry, now running more than 700 chapters around the country.\n\nDonations accepted at their many chapters include clothing, household items, and jewelry. If you're not sure whether your donations will be accepted, please give them a call beforehand.",
      "state": "Colorado",
      "stateSlug": "colorado",
      "city": "Unknown",
      "address": "8878 Maximus Dr, Lone Tree, CO 80124, USA",
      "street": "8878 Maximus Drive",
      "zip": "80124",
      "coordinates": {
        "lat": 39.554084,
        "lng": -104.885399
      },
      "acceptedMaterials": [
        "Appliances",
        "Books",
        "Clothing",
        "Furniture",
        "Homewares",
        "Toys"
      ],
      "logo": "arc-thrift.jpg",
      "permalink": "https://www.clothedonations.com/colorado/arc-thrift-lone-tree-2/",
      "lastUpdated": "6/10/2024"
    },
    {
      "id": "17367",
      "title": "Arc Thrift - Longmont",
      "company": "Arc Thrift",
      "description": "From its humble beginnings in 1950, Arc Thrift Stores has grown to become a major player in the charitable industry, now running more than 700 chapters around the country.\n\nDonations accepted at their many chapters include clothing, household items, and jewelry. If you're not sure whether your donations will be accepted, please give them a call beforehand.",
      "state": "Colorado",
      "stateSlug": "colorado",
      "city": "Longmont",
      "address": "2151 Main St, Longmont, CO 80501, USA",
      "street": "2151 Main Street",
      "zip": "80501",
      "coordinates": {
        "lat": 40.197288,
        "lng": -105.102622
      },
      "acceptedMaterials": [
        "Appliances",
        "Books",
        "Clothing",
        "Furniture",
        "Homewares",
        "Toys"
      ],
      "logo": "arc-thrift.jpg",
      "permalink": "https://www.clothedonations.com/colorado/arc-thrift-longmont/",
      "lastUpdated": "6/10/2024"
    },
    {
      "id": "17368",
      "title": "Arc Thrift - Longmont",
      "company": "Arc Thrift",
      "description": "From its humble beginnings in 1950, Arc Thrift Stores has grown to become a major player in the charitable industry, now running more than 700 chapters around the country.\n\nDonations accepted at their many chapters include clothing, household items, and jewelry. If you're not sure whether your donations will be accepted, please give them a call beforehand.",
      "state": "Colorado",
      "stateSlug": "colorado",
      "city": "Longmont",
      "address": "2151 Main St, Longmont, CO 80501, USA",
      "street": "2151 Main Street",
      "zip": "80501",
      "coordinates": {
        "lat": 40.197288,
        "lng": -105.102622
      },
      "acceptedMaterials": [
        "Appliances",
        "Books",
        "Clothing",
        "Furniture",
        "Homewares",
        "Toys"
      ],
      "logo": "arc-thrift.jpg",
      "permalink": "https://www.clothedonations.com/colorado/arc-thrift-longmont-2/",
      "lastUpdated": "6/10/2024"
    },
    {
      "id": "17370",
      "title": "Arc Thrift - Louisville",
      "company": "Arc Thrift",
      "description": "From its humble beginnings in 1950, Arc Thrift Stores has grown to become a major player in the charitable industry, now running more than 700 chapters around the country.\n\nDonations accepted at their many chapters include clothing, household items, and jewelry. If you're not sure whether your donations will be accepted, please give them a call beforehand.",
      "state": "Colorado",
      "stateSlug": "colorado",
      "city": "Unknown",
      "address": "1349 E South Boulder Rd, Louisville, CO 80027, USA",
      "street": "1349 East South Boulder Road",
      "zip": "80027",
      "coordinates": {
        "lat": 39.988445,
        "lng": -105.125713
      },
      "acceptedMaterials": [
        "Appliances",
        "Books",
        "Clothing",
        "Furniture",
        "Homewares",
        "Toys"
      ],
      "logo": "arc-thrift.jpg",
      "permalink": "https://www.clothedonations.com/colorado/arc-thrift-louisville/",
      "lastUpdated": "6/10/2024"
    },
    {
      "id": "17371",
      "title": "Arc Thrift - Louisville",
      "company": "Arc Thrift",
      "description": "From its humble beginnings in 1950, Arc Thrift Stores has grown to become a major player in the charitable industry, now running more than 700 chapters around the country.\n\nDonations accepted at their many chapters include clothing, household items, and jewelry. If you're not sure whether your donations will be accepted, please give them a call beforehand.",
      "state": "Colorado",
      "stateSlug": "colorado",
      "city": "Unknown",
      "address": "1349 E South Boulder Rd, Louisville, CO 80027, USA",
      "street": "1349 East South Boulder Road",
      "zip": "80027",
      "coordinates": {
        "lat": 39.988445,
        "lng": -105.125713
      },
      "acceptedMaterials": [
        "Appliances",
        "Books",
        "Clothing",
        "Furniture",
        "Homewares",
        "Toys"
      ],
      "logo": "arc-thrift.jpg",
      "permalink": "https://www.clothedonations.com/colorado/arc-thrift-louisville-2/",
      "lastUpdated": "6/10/2024"
    },
    {
      "id": "17372",
      "title": "Arc Thrift - Loveland",
      "company": "Arc Thrift",
      "description": "From its humble beginnings in 1950, Arc Thrift Stores has grown to become a major player in the charitable industry, now running more than 700 chapters around the country.\n\nDonations accepted at their many chapters include clothing, household items, and jewelry. If you're not sure whether your donations will be accepted, please give them a call beforehand.",
      "state": "Colorado",
      "stateSlug": "colorado",
      "city": "Loveland",
      "address": "3131 N Garfield Ave, Loveland, CO 80538, USA",
      "street": "3131 North Garfield Avenue",
      "zip": "80538",
      "coordinates": {
        "lat": 40.424942,
        "lng": -105.079478
      },
      "acceptedMaterials": [
        "Appliances",
        "Books",
        "Clothing",
        "Furniture",
        "Homewares",
        "Toys"
      ],
      "logo": "arc-thrift.jpg",
      "permalink": "https://www.clothedonations.com/colorado/arc-thrift-loveland/",
      "lastUpdated": "6/10/2024"
    },
    {
      "id": "17373",
      "title": "Arc Thrift - Loveland",
      "company": "Arc Thrift",
      "description": "From its humble beginnings in 1950, Arc Thrift Stores has grown to become a major player in the charitable industry, now running more than 700 chapters around the country.\n\nDonations accepted at their many chapters include clothing, household items, and jewelry. If you're not sure whether your donations will be accepted, please give them a call beforehand.",
      "state": "Colorado",
      "stateSlug": "colorado",
      "city": "Loveland",
      "address": "3131 N Garfield Ave, Loveland, CO 80538, USA",
      "street": "3131 North Garfield Avenue",
      "zip": "80538",
      "coordinates": {
        "lat": 40.424942,
        "lng": -105.079478
      },
      "acceptedMaterials": [
        "Appliances",
        "Books",
        "Clothing",
        "Furniture",
        "Homewares",
        "Toys"
      ],
      "logo": "arc-thrift.jpg",
      "permalink": "https://www.clothedonations.com/colorado/arc-thrift-loveland-2/",
      "lastUpdated": "6/10/2024"
    },
    {
      "id": "17402",
      "title": "Arc Thrift - Northglenn",
      "company": "Arc Thrift",
      "description": "From its humble beginnings in 1950, Arc Thrift Stores has grown to become a major player in the charitable industry, now running more than 700 chapters around the country.\n\nDonations accepted at their many chapters include clothing, household items, and jewelry. If you're not sure whether your donations will be accepted, please give them a call beforehand.",
      "state": "Colorado",
      "stateSlug": "colorado",
      "city": "Unknown",
      "address": "540 E 120th Ave, Northglenn, CO 80233, USA",
      "street": "540 East 120th Avenue",
      "zip": "80233",
      "coordinates": {
        "lat": 39.912309,
        "lng": -104.980024
      },
      "acceptedMaterials": [
        "Appliances",
        "Books",
        "Clothing",
        "Furniture",
        "Homewares",
        "Toys"
      ],
      "logo": "arc-thrift.jpg",
      "permalink": "https://www.clothedonations.com/colorado/arc-thrift-northglenn/",
      "lastUpdated": "6/10/2024"
    },
    {
      "id": "17403",
      "title": "Arc Thrift - Northglenn",
      "company": "Arc Thrift",
      "description": "From its humble beginnings in 1950, Arc Thrift Stores has grown to become a major player in the charitable industry, now running more than 700 chapters around the country.\n\nDonations accepted at their many chapters include clothing, household items, and jewelry. If you're not sure whether your donations will be accepted, please give them a call beforehand.",
      "state": "Colorado",
      "stateSlug": "colorado",
      "city": "Unknown",
      "address": "540 E 120th Ave, Northglenn, CO 80233, USA",
      "street": "540 East 120th Avenue",
      "zip": "80233",
      "coordinates": {
        "lat": 39.912309,
        "lng": -104.980024
      },
      "acceptedMaterials": [
        "Appliances",
        "Books",
        "Clothing",
        "Furniture",
        "Homewares",
        "Toys"
      ],
      "logo": "arc-thrift.jpg",
      "permalink": "https://www.clothedonations.com/colorado/arc-thrift-northglenn-2/",
      "lastUpdated": "6/10/2024"
    },
    {
      "id": "17422",
      "title": "Arc Thrift - Pueblo",
      "company": "Arc Thrift",
      "description": "From its humble beginnings in 1950, Arc Thrift Stores has grown to become a major player in the charitable industry, now running more than 700 chapters around the country.\n\nDonations accepted at their many chapters include clothing, household items, and jewelry. If you're not sure whether your donations will be accepted, please give them a call beforehand.",
      "state": "Colorado",
      "stateSlug": "colorado",
      "city": "Pueblo",
      "address": "1115 S Prairie Ave, Pueblo, CO 81005, USA",
      "street": "1115 South Prairie Avenue",
      "zip": "81005",
      "coordinates": {
        "lat": 38.246703,
        "lng": -104.645089
      },
      "acceptedMaterials": [
        "Appliances",
        "Books",
        "Clothing",
        "Furniture",
        "Homewares",
        "Toys"
      ],
      "logo": "arc-thrift.jpg",
      "permalink": "https://www.clothedonations.com/colorado/arc-thrift-pueblo/",
      "lastUpdated": "6/10/2024"
    },
    {
      "id": "17423",
      "title": "Arc Thrift - Pueblo",
      "company": "Arc Thrift",
      "description": "From its humble beginnings in 1950, Arc Thrift Stores has grown to become a major player in the charitable industry, now running more than 700 chapters around the country.\n\nDonations accepted at their many chapters include clothing, household items, and jewelry. If you're not sure whether your donations will be accepted, please give them a call beforehand.",
      "state": "Colorado",
      "stateSlug": "colorado",
      "city": "Pueblo",
      "address": "1115 S Prairie Ave, Pueblo, CO 81005, USA",
      "street": "1115 South Prairie Avenue",
      "zip": "81005",
      "coordinates": {
        "lat": 38.246703,
        "lng": -104.645089
      },
      "acceptedMaterials": [
        "Appliances",
        "Books",
        "Clothing",
        "Furniture",
        "Homewares",
        "Toys"
      ],
      "logo": "arc-thrift.jpg",
      "permalink": "https://www.clothedonations.com/colorado/arc-thrift-pueblo-2/",
      "lastUpdated": "6/10/2024"
    },
    {
      "id": "17424",
      "title": "Arc Thrift - Pueblo",
      "company": "Arc Thrift",
      "description": "From its humble beginnings in 1950, Arc Thrift Stores has grown to become a major player in the charitable industry, now running more than 700 chapters around the country.\n\nDonations accepted at their many chapters include clothing, household items, and jewelry. If you're not sure whether your donations will be accepted, please give them a call beforehand.",
      "state": "Colorado",
      "stateSlug": "colorado",
      "city": "Pueblo",
      "address": "3015 N Elizabeth St, Pueblo, CO 81008, USA",
      "street": "3015 North Elizabeth Street",
      "zip": "81008",
      "coordinates": {
        "lat": 38.300387,
        "lng": -104.615585
      },
      "acceptedMaterials": [
        "Appliances",
        "Books",
        "Clothing",
        "Furniture",
        "Homewares",
        "Toys"
      ],
      "logo": "arc-thrift.jpg",
      "permalink": "https://www.clothedonations.com/colorado/arc-thrift-pueblo-3/",
      "lastUpdated": "6/10/2024"
    },
    {
      "id": "17425",
      "title": "Arc Thrift - Pueblo",
      "company": "Arc Thrift",
      "description": "From its humble beginnings in 1950, Arc Thrift Stores has grown to become a major player in the charitable industry, now running more than 700 chapters around the country.\n\nDonations accepted at their many chapters include clothing, household items, and jewelry. If you're not sure whether your donations will be accepted, please give them a call beforehand.",
      "state": "Colorado",
      "stateSlug": "colorado",
      "city": "Pueblo",
      "address": "3015 N Elizabeth St, Pueblo, CO 81008, USA",
      "street": "3015 North Elizabeth Street",
      "zip": "81008",
      "coordinates": {
        "lat": 38.300387,
        "lng": -104.615585
      },
      "acceptedMaterials": [
        "Appliances",
        "Books",
        "Clothing",
        "Furniture",
        "Homewares",
        "Toys"
      ],
      "logo": "arc-thrift.jpg",
      "permalink": "https://www.clothedonations.com/colorado/arc-thrift-pueblo-4/",
      "lastUpdated": "6/10/2024"
    },
    {
      "id": "17466",
      "title": "Arc Thrift - Thornton",
      "company": "Arc Thrift",
      "description": "From its humble beginnings in 1950, Arc Thrift Stores has grown to become a major player in the charitable industry, now running more than 700 chapters around the country.\n\nDonations accepted at their many chapters include clothing, household items, and jewelry. If you're not sure whether your donations will be accepted, please give them a call beforehand.",
      "state": "Colorado",
      "stateSlug": "colorado",
      "city": "Thornton",
      "address": "9131 Washington St, Thornton, CO 80229, USA",
      "street": "9131 Washington Street",
      "zip": "80229",
      "coordinates": {
        "lat": 39.862388,
        "lng": -104.978901
      },
      "acceptedMaterials": [
        "Appliances",
        "Books",
        "Clothing",
        "Furniture",
        "Homewares",
        "Toys"
      ],
      "logo": "arc-thrift.jpg",
      "permalink": "https://www.clothedonations.com/colorado/arc-thrift-thornton/",
      "lastUpdated": "6/10/2024"
    },
    {
      "id": "17467",
      "title": "Arc Thrift - Thornton",
      "company": "Arc Thrift",
      "description": "From its humble beginnings in 1950, Arc Thrift Stores has grown to become a major player in the charitable industry, now running more than 700 chapters around the country.\n\nDonations accepted at their many chapters include clothing, household items, and jewelry. If you're not sure whether your donations will be accepted, please give them a call beforehand.",
      "state": "Colorado",
      "stateSlug": "colorado",
      "city": "Thornton",
      "address": "9131 Washington St, Thornton, CO 80229, USA",
      "street": "9131 Washington Street",
      "zip": "80229",
      "coordinates": {
        "lat": 39.862388,
        "lng": -104.978901
      },
      "acceptedMaterials": [
        "Appliances",
        "Books",
        "Clothing",
        "Furniture",
        "Homewares",
        "Toys"
      ],
      "logo": "arc-thrift.jpg",
      "permalink": "https://www.clothedonations.com/colorado/arc-thrift-thornton-2/",
      "lastUpdated": "6/10/2024"
    },
    {
      "id": "17729",
      "title": "Salvation Army - Boulder",
      "company": "Salvation Army",
      "description": "The Salvation Army was founded in London in 1865. Since then it has grown into a global charitable organization, currently serving in 130 countries.\n\nFinancial donations are more than welcome, but they also accept goods such as clothing, houseware, home appliances, furniture, and others. If you're not sure whether they can accept your donation, please give them a call beforehand.",
      "state": "Colorado",
      "stateSlug": "colorado",
      "city": "Boulder",
      "address": "1701 33rd St, Boulder, CO 80301, USA",
      "street": "1701 33rd Street",
      "zip": "80301",
      "coordinates": {
        "lat": 40.016229,
        "lng": -105.250651
      },
      "acceptedMaterials": [
        "Appliances",
        "Clothing",
        "Furniture",
        "Homewares"
      ],
      "logo": "salvation-army.jpg",
      "permalink": "https://www.clothedonations.com/colorado/salvation-army-boulder/",
      "lastUpdated": "7/10/2024"
    },
    {
      "id": "17891",
      "title": "Salvation Army - Colorado Springs",
      "company": "Salvation Army",
      "description": "The Salvation Army was founded in London in 1865. Since then it has grown into a global charitable organization, currently serving in 130 countries.\n\nFinancial donations are more than welcome, but they also accept goods such as clothing, houseware, home appliances, furniture, and others. If you're not sure whether they can accept your donation, please give them a call beforehand.",
      "state": "Colorado",
      "stateSlug": "colorado",
      "city": "Colorado Springs",
      "address": "3955 Tutt Blvd, Colorado Springs, CO 80922, USA",
      "street": "3955 Tutt Boulevard",
      "zip": "80922",
      "coordinates": {
        "lat": 38.888988,
        "lng": -104.713724
      },
      "acceptedMaterials": [
        "Appliances",
        "Clothing",
        "Furniture",
        "Homewares"
      ],
      "logo": "salvation-army.jpg",
      "permalink": "https://www.clothedonations.com/colorado/salvation-army-colorado-springs/",
      "lastUpdated": "7/10/2024"
    },
    {
      "id": "17892",
      "title": "Salvation Army - Colorado Springs",
      "company": "Salvation Army",
      "description": "The Salvation Army was founded in London in 1865. Since then it has grown into a global charitable organization, currently serving in 130 countries.\n\nFinancial donations are more than welcome, but they also accept goods such as clothing, houseware, home appliances, furniture, and others. If you're not sure whether they can accept your donation, please give them a call beforehand.",
      "state": "Colorado",
      "stateSlug": "colorado",
      "city": "Colorado Springs",
      "address": "505 S Weber St, Colorado Springs, CO 80903, USA",
      "street": "505 South Weber Street",
      "zip": "80903",
      "coordinates": {
        "lat": 38.825775,
        "lng": -104.819835
      },
      "acceptedMaterials": [
        "Appliances",
        "Clothing",
        "Furniture",
        "Homewares"
      ],
      "logo": "salvation-army.jpg",
      "permalink": "https://www.clothedonations.com/colorado/salvation-army-colorado-springs-2/",
      "lastUpdated": "7/10/2024"
    },
    {
      "id": "17957",
      "title": "Salvation Army - Delta",
      "company": "Salvation Army",
      "description": "The Salvation Army was founded in London in 1865. Since then it has grown into a global charitable organization, currently serving in 130 countries.\n\nFinancial donations are more than welcome, but they also accept goods such as clothing, houseware, home appliances, furniture, and others. If you're not sure whether they can accept your donation, please give them a call beforehand.",
      "state": "Colorado",
      "stateSlug": "colorado",
      "city": "Unknown",
      "address": "E 5th St, Delta, CO 81416, USA",
      "street": "East 5th Street",
      "zip": "81416",
      "coordinates": {
        "lat": 38.740985,
        "lng": -108.056095
      },
      "acceptedMaterials": [
        "Appliances",
        "Clothing",
        "Furniture",
        "Homewares"
      ],
      "logo": "salvation-army.jpg",
      "permalink": "https://www.clothedonations.com/colorado/salvation-army-delta/",
      "lastUpdated": "7/10/2024"
    },
    {
      "id": "18104",
      "title": "Salvation Army - Grand Junction",
      "company": "Salvation Army",
      "description": "The Salvation Army was founded in London in 1865. Since then it has grown into a global charitable organization, currently serving in 130 countries.\n\nFinancial donations are more than welcome, but they also accept goods such as clothing, houseware, home appliances, furniture, and others. If you're not sure whether they can accept your donation, please give them a call beforehand.",
      "state": "Colorado",
      "stateSlug": "colorado",
      "city": "Grand Junction",
      "address": "1038 Ute Ave, Grand Junction, CO 81501, USA",
      "street": "Ute Avenue",
      "zip": "81501",
      "coordinates": {
        "lat": 39.06562,
        "lng": -108.554897
      },
      "acceptedMaterials": [
        "Appliances",
        "Clothing",
        "Furniture",
        "Homewares"
      ],
      "logo": "salvation-army.jpg",
      "permalink": "https://www.clothedonations.com/colorado/salvation-army-grand-junction/",
      "lastUpdated": "7/10/2024"
    },
    {
      "id": "18105",
      "title": "Salvation Army - Grand Junction",
      "company": "Salvation Army",
      "description": "The Salvation Army was founded in London in 1865. Since then it has grown into a global charitable organization, currently serving in 130 countries.\n\nFinancial donations are more than welcome, but they also accept goods such as clothing, houseware, home appliances, furniture, and others. If you're not sure whether they can accept your donation, please give them a call beforehand.",
      "state": "Colorado",
      "stateSlug": "colorado",
      "city": "Grand Junction",
      "address": "1155 N 4th St, Grand Junction, CO 81501, USA",
      "street": "1155 North 4th Street",
      "zip": "81501",
      "coordinates": {
        "lat": 39.078406,
        "lng": -108.566585
      },
      "acceptedMaterials": [
        "Appliances",
        "Clothing",
        "Furniture",
        "Homewares"
      ],
      "logo": "salvation-army.jpg",
      "permalink": "https://www.clothedonations.com/colorado/salvation-army-grand-junction-2/",
      "lastUpdated": "7/10/2024"
    },
    {
      "id": "18106",
      "title": "Salvation Army - Grand Junction",
      "company": "Salvation Army",
      "description": "The Salvation Army was founded in London in 1865. Since then it has grown into a global charitable organization, currently serving in 130 countries.\n\nFinancial donations are more than welcome, but they also accept goods such as clothing, houseware, home appliances, furniture, and others. If you're not sure whether they can accept your donation, please give them a call beforehand.",
      "state": "Colorado",
      "stateSlug": "colorado",
      "city": "Grand Junction",
      "address": "625 Colorado Ave, Grand Junction, CO 81501, USA",
      "street": "625 Colorado Avenue",
      "zip": "81501",
      "coordinates": {
        "lat": 39.066144,
        "lng": -108.561761
      },
      "acceptedMaterials": [
        "Appliances",
        "Clothing",
        "Furniture",
        "Homewares"
      ],
      "logo": "salvation-army.jpg",
      "permalink": "https://www.clothedonations.com/colorado/salvation-army-grand-junction-3/",
      "lastUpdated": "7/10/2024"
    },
    {
      "id": "18410",
      "title": "Salvation Army - Montrose",
      "company": "Salvation Army",
      "description": "The Salvation Army was founded in London in 1865. Since then it has grown into a global charitable organization, currently serving in 130 countries.\n\nFinancial donations are more than welcome, but they also accept goods such as clothing, houseware, home appliances, furniture, and others. If you're not sure whether they can accept your donation, please give them a call beforehand.",
      "state": "Colorado",
      "stateSlug": "colorado",
      "city": "Montrose",
      "address": "514 S 1st St, Montrose, CO 81401, USA",
      "street": "514 South 1st Street",
      "zip": "81401",
      "coordinates": {
        "lat": 38.479516,
        "lng": -107.874053
      },
      "acceptedMaterials": [
        "Appliances",
        "Clothing",
        "Furniture",
        "Homewares"
      ],
      "logo": "salvation-army.jpg",
      "permalink": "https://www.clothedonations.com/colorado/salvation-army-montrose/",
      "lastUpdated": "7/10/2024"
    },
    {
      "id": "18546",
      "title": "Salvation Army - Parker",
      "company": "Salvation Army",
      "description": "The Salvation Army was founded in London in 1865. Since then it has grown into a global charitable organization, currently serving in 130 countries.\n\nFinancial donations are more than welcome, but they also accept goods such as clothing, houseware, home appliances, furniture, and others. If you're not sure whether they can accept your donation, please give them a call beforehand.",
      "state": "Colorado",
      "stateSlug": "colorado",
      "city": "Unknown",
      "address": "18349 Lincoln Meadows Pkwy, Parker, CO 80134, USA",
      "street": "18349 Lincoln Meadows Parkway",
      "zip": "80134",
      "coordinates": {
        "lat": 39.534552,
        "lng": -104.776434
      },
      "acceptedMaterials": [
        "Appliances",
        "Clothing",
        "Furniture",
        "Homewares"
      ],
      "logo": "salvation-army.jpg",
      "permalink": "https://www.clothedonations.com/colorado/salvation-army-parker/",
      "lastUpdated": "7/10/2024"
    },
    {
      "id": "19507",
      "title": "Goodwill - Arvada",
      "company": "Goodwill",
      "description": "Goodwill is a non-profit organization that initiates community-based programs related to gainful employment. It was founded in 1902 in Boston.\n\nThe accept financial donations, as well as clothing and household items in usable condition. If you're not sure whether they can accept your donation, please give them a call beforehand.",
      "state": "Colorado",
      "stateSlug": "colorado",
      "city": "Unknown",
      "address": "6340 McIntyre Pkwy, Arvada, CO 80403, USA",
      "street": "6340 McIntyre Parkway",
      "zip": "80403",
      "coordinates": {
        "lat": 39.810261,
        "lng": -105.168386
      },
      "acceptedMaterials": [
        "Clothing",
        "Furniture",
        "Homewares"
      ],
      "logo": "goodwill.jpg",
      "permalink": "https://www.clothedonations.com/colorado/goodwill-arvada/",
      "lastUpdated": "7/10/2024"
    },
    {
      "id": "19508",
      "title": "Goodwill - Arvada",
      "company": "Goodwill",
      "description": "Goodwill is a non-profit organization that initiates community-based programs related to gainful employment. It was founded in 1902 in Boston.\n\nThe accept financial donations, as well as clothing and household items in usable condition. If you're not sure whether they can accept your donation, please give them a call beforehand.",
      "state": "Colorado",
      "stateSlug": "colorado",
      "city": "Unknown",
      "address": "7547 W 80th Ave, Arvada, CO 80003, USA",
      "street": "7547 West 80th Avenue",
      "zip": "80003",
      "coordinates": {
        "lat": 39.843377,
        "lng": -105.080128
      },
      "acceptedMaterials": [
        "Clothing",
        "Furniture",
        "Homewares"
      ],
      "logo": "goodwill.jpg",
      "permalink": "https://www.clothedonations.com/colorado/goodwill-arvada-2/",
      "lastUpdated": "7/10/2024"
    },
    {
      "id": "19538",
      "title": "Goodwill - Aurora",
      "company": "Goodwill",
      "description": "Goodwill is a non-profit organization that initiates community-based programs related to gainful employment. It was founded in 1902 in Boston.\n\nThe accept financial donations, as well as clothing and household items in usable condition. If you're not sure whether they can accept your donation, please give them a call beforehand.",
      "state": "Colorado",
      "stateSlug": "colorado",
      "city": "Aurora",
      "address": "10590 E Colfax Ave, Aurora, CO 80010, USA",
      "street": "10590 East Colfax Avenue",
      "zip": "80010",
      "coordinates": {
        "lat": 39.739227,
        "lng": -104.864981
      },
      "acceptedMaterials": [
        "Clothing",
        "Furniture",
        "Homewares"
      ],
      "logo": "goodwill.jpg",
      "permalink": "https://www.clothedonations.com/colorado/goodwill-aurora/",
      "lastUpdated": "7/10/2024"
    },
    {
      "id": "19539",
      "title": "Goodwill - Aurora",
      "company": "Goodwill",
      "description": "Goodwill is a non-profit organization that initiates community-based programs related to gainful employment. It was founded in 1902 in Boston.\n\nThe accept financial donations, as well as clothing and household items in usable condition. If you're not sure whether they can accept your donation, please give them a call beforehand.",
      "state": "Colorado",
      "stateSlug": "colorado",
      "city": "Aurora",
      "address": "14400 E Belleview Ave, Aurora, CO 80015, USA",
      "street": "14400 East Belleview Avenue",
      "zip": "80015",
      "coordinates": {
        "lat": 39.623478,
        "lng": -104.820564
      },
      "acceptedMaterials": [
        "Clothing",
        "Furniture",
        "Homewares"
      ],
      "logo": "goodwill.jpg",
      "permalink": "https://www.clothedonations.com/colorado/goodwill-aurora-2/",
      "lastUpdated": "7/10/2024"
    },
    {
      "id": "19540",
      "title": "Goodwill - Aurora",
      "company": "Goodwill",
      "description": "Goodwill is a non-profit organization that initiates community-based programs related to gainful employment. It was founded in 1902 in Boston.\n\nThe accept financial donations, as well as clothing and household items in usable condition. If you're not sure whether they can accept your donation, please give them a call beforehand.",
      "state": "Colorado",
      "stateSlug": "colorado",
      "city": "Aurora",
      "address": "15509 E Iliff Ave, Aurora, CO 80013, USA",
      "street": "15509 East Iliff Avenue",
      "zip": "80013",
      "coordinates": {
        "lat": 39.675049,
        "lng": -104.807729
      },
      "acceptedMaterials": [
        "Clothing",
        "Furniture",
        "Homewares"
      ],
      "logo": "goodwill.jpg",
      "permalink": "https://www.clothedonations.com/colorado/goodwill-aurora-3/",
      "lastUpdated": "7/10/2024"
    },
    {
      "id": "19541",
      "title": "Goodwill - Aurora",
      "company": "Goodwill",
      "description": "Goodwill is a non-profit organization that initiates community-based programs related to gainful employment. It was founded in 1902 in Boston.\n\nThe accept financial donations, as well as clothing and household items in usable condition. If you're not sure whether they can accept your donation, please give them a call beforehand.",
      "state": "Colorado",
      "stateSlug": "colorado",
      "city": "Aurora",
      "address": "18355 E 35th Pl, Aurora, CO 80011, USA",
      "street": "18355 East 35th Place",
      "zip": "80011",
      "coordinates": {
        "lat": 39.768046,
        "lng": -104.774437
      },
      "acceptedMaterials": [
        "Clothing",
        "Furniture",
        "Homewares"
      ],
      "logo": "goodwill.jpg",
      "permalink": "https://www.clothedonations.com/colorado/goodwill-aurora-4/",
      "lastUpdated": "7/10/2024"
    },
    {
      "id": "19542",
      "title": "Goodwill - Aurora",
      "company": "Goodwill",
      "description": "Goodwill is a non-profit organization that initiates community-based programs related to gainful employment. It was founded in 1902 in Boston.\n\nThe accept financial donations, as well as clothing and household items in usable condition. If you're not sure whether they can accept your donation, please give them a call beforehand.",
      "state": "Colorado",
      "stateSlug": "colorado",
      "city": "Aurora",
      "address": "22880 E Smoky Hill Rd, Aurora, CO 80016, USA",
      "street": "22880 East Smoky Hill Road",
      "zip": "80016",
      "coordinates": {
        "lat": 39.600662,
        "lng": -104.721424
      },
      "acceptedMaterials": [
        "Clothing",
        "Furniture",
        "Homewares"
      ],
      "logo": "goodwill.jpg",
      "permalink": "https://www.clothedonations.com/colorado/goodwill-aurora-5/",
      "lastUpdated": "7/10/2024"
    },
    {
      "id": "19711",
      "title": "Goodwill - Boulder",
      "company": "Goodwill",
      "description": "Goodwill is a non-profit organization that initiates community-based programs related to gainful employment. It was founded in 1902 in Boston.\n\nThe accept financial donations, as well as clothing and household items in usable condition. If you're not sure whether they can accept your donation, please give them a call beforehand.",
      "state": "Colorado",
      "stateSlug": "colorado",
      "city": "Boulder",
      "address": "2486 Baseline Rd, Boulder, CO 80305, USA",
      "street": "2486 Baseline Road",
      "zip": "80310",
      "coordinates": {
        "lat": 39.998508,
        "lng": -105.2619
      },
      "acceptedMaterials": [
        "Clothing",
        "Furniture",
        "Homewares"
      ],
      "logo": "goodwill.jpg",
      "permalink": "https://www.clothedonations.com/colorado/goodwill-boulder/",
      "lastUpdated": "7/10/2024"
    },
    {
      "id": "19712",
      "title": "Goodwill - Boulder",
      "company": "Goodwill",
      "description": "Goodwill is a non-profit organization that initiates community-based programs related to gainful employment. It was founded in 1902 in Boston.\n\nThe accept financial donations, as well as clothing and household items in usable condition. If you're not sure whether they can accept your donation, please give them a call beforehand.",
      "state": "Colorado",
      "stateSlug": "colorado",
      "city": "Boulder",
      "address": "3043 Walnut St, Boulder, CO 80301, USA",
      "street": "3043 Walnut Street",
      "zip": "80310",
      "coordinates": {
        "lat": 40.020762,
        "lng": -105.253057
      },
      "acceptedMaterials": [
        "Clothing",
        "Furniture",
        "Homewares"
      ],
      "logo": "goodwill.jpg",
      "permalink": "https://www.clothedonations.com/colorado/goodwill-boulder-2/",
      "lastUpdated": "7/10/2024"
    },
    {
      "id": "19743",
      "title": "Goodwill - Broomfield",
      "company": "Goodwill",
      "description": "Goodwill is a non-profit organization that initiates community-based programs related to gainful employment. It was founded in 1902 in Boston.\n\nThe accept financial donations, as well as clothing and household items in usable condition. If you're not sure whether they can accept your donation, please give them a call beforehand.",
      "state": "Colorado",
      "stateSlug": "colorado",
      "city": "Unknown",
      "address": "4775 W 121st Ave, Broomfield, CO 80020, USA",
      "street": "4775 West 121st Avenue",
      "zip": "80020",
      "coordinates": {
        "lat": 39.916176,
        "lng": -105.048892
      },
      "acceptedMaterials": [
        "Clothing",
        "Furniture",
        "Homewares"
      ],
      "logo": "goodwill.jpg",
      "permalink": "https://www.clothedonations.com/colorado/goodwill-broomfield/",
      "lastUpdated": "7/10/2024"
    },
    {
      "id": "19812",
      "title": "Goodwill - Castle Rock",
      "company": "Goodwill",
      "description": "Goodwill is a non-profit organization that initiates community-based programs related to gainful employment. It was founded in 1902 in Boston.\n\nThe accept financial donations, as well as clothing and household items in usable condition. If you're not sure whether they can accept your donation, please give them a call beforehand.",
      "state": "Colorado",
      "stateSlug": "colorado",
      "city": "Castle Rock",
      "address": "335 Barranca Drive, Castle Rock, CO 80104, USA",
      "street": "335 Barranca Drive",
      "zip": "80109",
      "coordinates": {
        "lat": 39.406564,
        "lng": -104.858316
      },
      "acceptedMaterials": [
        "Clothing",
        "Furniture",
        "Homewares"
      ],
      "logo": "goodwill.jpg",
      "permalink": "https://www.clothedonations.com/colorado/goodwill-castle-rock/",
      "lastUpdated": "7/10/2024"
    },
    {
      "id": "19813",
      "title": "Goodwill - Castle Rock",
      "company": "Goodwill",
      "description": "Goodwill is a non-profit organization that initiates community-based programs related to gainful employment. It was founded in 1902 in Boston.\n\nThe accept financial donations, as well as clothing and household items in usable condition. If you're not sure whether they can accept your donation, please give them a call beforehand.",
      "state": "Colorado",
      "stateSlug": "colorado",
      "city": "Unknown",
      "address": "562 Castle Pines Pkwy, Castle Rock, CO 80108, USA",
      "street": "",
      "zip": "",
      "coordinates": {
        "lat": 39.470371,
        "lng": -104.87529
      },
      "acceptedMaterials": [
        "Clothing",
        "Furniture",
        "Homewares"
      ],
      "logo": "goodwill.jpg",
      "permalink": "https://www.clothedonations.com/colorado/goodwill-castle-rock-2/",
      "lastUpdated": "7/10/2024"
    },
    {
      "id": "20045",
      "title": "Goodwill - Denver",
      "company": "Goodwill",
      "description": "Goodwill is a non-profit organization that initiates community-based programs related to gainful employment. It was founded in 1902 in Boston.\n\nThe accept financial donations, as well as clothing and household items in usable condition. If you're not sure whether they can accept your donation, please give them a call beforehand.",
      "state": "Colorado",
      "stateSlug": "colorado",
      "city": "Denver",
      "address": "21 S Broadway, Denver, CO 80209, USA",
      "street": "21 South Broadway",
      "zip": "80209",
      "coordinates": {
        "lat": 39.715951,
        "lng": -104.9879
      },
      "acceptedMaterials": [
        "Clothing",
        "Furniture",
        "Homewares"
      ],
      "logo": "goodwill.jpg",
      "permalink": "https://www.clothedonations.com/colorado/goodwill-denver/",
      "lastUpdated": "7/10/2024"
    },
    {
      "id": "20046",
      "title": "Goodwill - Denver",
      "company": "Goodwill",
      "description": "Goodwill is a non-profit organization that initiates community-based programs related to gainful employment. It was founded in 1902 in Boston.\n\nThe accept financial donations, as well as clothing and household items in usable condition. If you're not sure whether they can accept your donation, please give them a call beforehand.",
      "state": "Colorado",
      "stateSlug": "colorado",
      "city": "Denver",
      "address": "3100 S Sheridan Blvd, Denver, CO 80227, USA",
      "street": "3100 South Sheridan Boulevard",
      "zip": "80227",
      "coordinates": {
        "lat": 39.654561,
        "lng": -105.051175
      },
      "acceptedMaterials": [
        "Clothing",
        "Furniture",
        "Homewares"
      ],
      "logo": "goodwill.jpg",
      "permalink": "https://www.clothedonations.com/colorado/goodwill-denver-2/",
      "lastUpdated": "7/10/2024"
    },
    {
      "id": "20047",
      "title": "Goodwill - Denver",
      "company": "Goodwill",
      "description": "Goodwill is a non-profit organization that initiates community-based programs related to gainful employment. It was founded in 1902 in Boston.\n\nThe accept financial donations, as well as clothing and household items in usable condition. If you're not sure whether they can accept your donation, please give them a call beforehand.",
      "state": "Colorado",
      "stateSlug": "colorado",
      "city": "Denver",
      "address": "575 Clayton St, Denver, CO 80206, USA",
      "street": "575 Clayton Street",
      "zip": "80206",
      "coordinates": {
        "lat": 39.725416,
        "lng": -104.956203
      },
      "acceptedMaterials": [
        "Clothing",
        "Furniture",
        "Homewares"
      ],
      "logo": "goodwill.jpg",
      "permalink": "https://www.clothedonations.com/colorado/goodwill-denver-3/",
      "lastUpdated": "7/10/2024"
    },
    {
      "id": "20048",
      "title": "Goodwill - Denver",
      "company": "Goodwill",
      "description": "Goodwill is a non-profit organization that initiates community-based programs related to gainful employment. It was founded in 1902 in Boston.\n\nThe accept financial donations, as well as clothing and household items in usable condition. If you're not sure whether they can accept your donation, please give them a call beforehand.",
      "state": "Colorado",
      "stateSlug": "colorado",
      "city": "Denver",
      "address": "5825 W 44th Ave, Denver, CO 80212, USA",
      "street": "West 44th Avenue",
      "zip": "80212",
      "coordinates": {
        "lat": 39.77782,
        "lng": -105.059669
      },
      "acceptedMaterials": [
        "Clothing",
        "Furniture",
        "Homewares"
      ],
      "logo": "goodwill.jpg",
      "permalink": "https://www.clothedonations.com/colorado/goodwill-denver-4/",
      "lastUpdated": "7/10/2024"
    },
    {
      "id": "20049",
      "title": "Goodwill - Denver",
      "company": "Goodwill",
      "description": "Goodwill is a non-profit organization that initiates community-based programs related to gainful employment. It was founded in 1902 in Boston.\n\nThe accept financial donations, as well as clothing and household items in usable condition. If you're not sure whether they can accept your donation, please give them a call beforehand.",
      "state": "Colorado",
      "stateSlug": "colorado",
      "city": "Denver",
      "address": "6435 E Hampden Ave, Denver, CO 80222, USA",
      "street": "6435 East Hampden Avenue",
      "zip": "80222",
      "coordinates": {
        "lat": 39.654154,
        "lng": -104.914521
      },
      "acceptedMaterials": [
        "Clothing",
        "Furniture",
        "Homewares"
      ],
      "logo": "goodwill.jpg",
      "permalink": "https://www.clothedonations.com/colorado/goodwill-denver-5/",
      "lastUpdated": "7/10/2024"
    },
    {
      "id": "20050",
      "title": "Goodwill - Denver",
      "company": "Goodwill",
      "description": "Goodwill is a non-profit organization that initiates community-based programs related to gainful employment. It was founded in 1902 in Boston.\n\nThe accept financial donations, as well as clothing and household items in usable condition. If you're not sure whether they can accept your donation, please give them a call beforehand.",
      "state": "Colorado",
      "stateSlug": "colorado",
      "city": "Denver",
      "address": "7797 E 36th Ave, Denver, CO 80238, USA",
      "street": "7797 East 36th Avenue",
      "zip": "80238",
      "coordinates": {
        "lat": 39.767752,
        "lng": -104.897464
      },
      "acceptedMaterials": [
        "Clothing",
        "Furniture",
        "Homewares"
      ],
      "logo": "goodwill.jpg",
      "permalink": "https://www.clothedonations.com/colorado/goodwill-denver-6/",
      "lastUpdated": "7/10/2024"
    },
    {
      "id": "20126",
      "title": "Goodwill - Englewood",
      "company": "Goodwill",
      "description": "Goodwill is a non-profit organization that initiates community-based programs related to gainful employment. It was founded in 1902 in Boston.\n\nThe accept financial donations, as well as clothing and household items in usable condition. If you're not sure whether they can accept your donation, please give them a call beforehand.",
      "state": "Colorado",
      "stateSlug": "colorado",
      "city": "Unknown",
      "address": "4160 S Broadway, Englewood, CO 80113, USA",
      "street": "4160 South Broadway",
      "zip": "80113",
      "coordinates": {
        "lat": 39.641286,
        "lng": -104.987352
      },
      "acceptedMaterials": [
        "Clothing",
        "Furniture",
        "Homewares"
      ],
      "logo": "goodwill.jpg",
      "permalink": "https://www.clothedonations.com/colorado/goodwill-englewood/",
      "lastUpdated": "7/10/2024"
    },
    {
      "id": "20136",
      "title": "Goodwill - Evergreen",
      "company": "Goodwill",
      "description": "Goodwill is a non-profit organization that initiates community-based programs related to gainful employment. It was founded in 1902 in Boston.\n\nThe accept financial donations, as well as clothing and household items in usable condition. If you're not sure whether they can accept your donation, please give them a call beforehand.",
      "state": "Colorado",
      "stateSlug": "colorado",
      "city": "Unknown",
      "address": "1250 Bergen Pkwy, Evergreen, CO 80439, USA",
      "street": "",
      "zip": "",
      "coordinates": {
        "lat": 39.691049,
        "lng": -105.357835
      },
      "acceptedMaterials": [
        "Clothing",
        "Furniture",
        "Homewares"
      ],
      "logo": "goodwill.jpg",
      "permalink": "https://www.clothedonations.com/colorado/goodwill-evergreen/",
      "lastUpdated": "7/10/2024"
    },
    {
      "id": "20187",
      "title": "Goodwill - Fort Morgan",
      "company": "Goodwill",
      "description": "Goodwill is a non-profit organization that initiates community-based programs related to gainful employment. It was founded in 1902 in Boston.\n\nThe accept financial donations, as well as clothing and household items in usable condition. If you're not sure whether they can accept your donation, please give them a call beforehand.",
      "state": "Colorado",
      "stateSlug": "colorado",
      "city": "Unknown",
      "address": "1000 E Platte Ave, Fort Morgan, CO 80701, USA",
      "street": "1000 East Platte Avenue",
      "zip": "80701",
      "coordinates": {
        "lat": 40.253431,
        "lng": -103.787758
      },
      "acceptedMaterials": [
        "Clothing",
        "Furniture",
        "Homewares"
      ],
      "logo": "goodwill.jpg",
      "permalink": "https://www.clothedonations.com/colorado/goodwill-fort-morgan/",
      "lastUpdated": "7/10/2024"
    },
    {
      "id": "20257",
      "title": "Goodwill - Denver",
      "company": "Goodwill",
      "description": "Goodwill is a non-profit organization that initiates community-based programs related to gainful employment. It was founded in 1902 in Boston.\n\nThe accept financial donations, as well as clothing and household items in usable condition. If you're not sure whether they can accept your donation, please give them a call beforehand.",
      "state": "Colorado",
      "stateSlug": "colorado",
      "city": "Unknown",
      "address": "5000 Leetsdale Dr, Glendale, CO 80246, USA",
      "street": "5000 Leetsdale Drive",
      "zip": "80246",
      "coordinates": {
        "lat": 39.707412,
        "lng": -104.929303
      },
      "acceptedMaterials": [
        "Clothing",
        "Furniture",
        "Homewares"
      ],
      "logo": "goodwill.jpg",
      "permalink": "https://www.clothedonations.com/colorado/goodwill-denver-8/",
      "lastUpdated": "7/10/2024"
    },
    {
      "id": "20259",
      "title": "Goodwill - Golden",
      "company": "Goodwill",
      "description": "Goodwill is a non-profit organization that initiates community-based programs related to gainful employment. It was founded in 1902 in Boston.\n\nThe accept financial donations, as well as clothing and household items in usable condition. If you're not sure whether they can accept your donation, please give them a call beforehand.",
      "state": "Colorado",
      "stateSlug": "colorado",
      "city": "Golden",
      "address": "17722 S Golden Rd, Golden, CO 80401, USA",
      "street": "17722 South Golden Road",
      "zip": "80401",
      "coordinates": {
        "lat": 39.740896,
        "lng": -105.199687
      },
      "acceptedMaterials": [
        "Clothing",
        "Furniture",
        "Homewares"
      ],
      "logo": "goodwill.jpg",
      "permalink": "https://www.clothedonations.com/colorado/goodwill-golden/",
      "lastUpdated": "7/10/2024"
    },
    {
      "id": "20277",
      "title": "Goodwill - Greeley",
      "company": "Goodwill",
      "description": "Goodwill is a non-profit organization that initiates community-based programs related to gainful employment. It was founded in 1902 in Boston.\n\nThe accept financial donations, as well as clothing and household items in usable condition. If you're not sure whether they can accept your donation, please give them a call beforehand.",
      "state": "Colorado",
      "stateSlug": "colorado",
      "city": "Greeley",
      "address": "2510 47th Ave, Greeley, CO 80634, USA",
      "street": "2510 47th Avenue",
      "zip": "80634",
      "coordinates": {
        "lat": 40.396811,
        "lng": -104.754737
      },
      "acceptedMaterials": [
        "Clothing",
        "Furniture",
        "Homewares"
      ],
      "logo": "goodwill.jpg",
      "permalink": "https://www.clothedonations.com/colorado/goodwill-greeley/",
      "lastUpdated": "7/10/2024"
    },
    {
      "id": "20377",
      "title": "Goodwill - Highlands Ranch",
      "company": "Goodwill",
      "description": "Goodwill is a non-profit organization that initiates community-based programs related to gainful employment. It was founded in 1902 in Boston.\n\nThe accept financial donations, as well as clothing and household items in usable condition. If you're not sure whether they can accept your donation, please give them a call beforehand.",
      "state": "Colorado",
      "stateSlug": "colorado",
      "city": "Unknown",
      "address": "8585 Poplar Way, Highlands Ranch, CO 80130, USA",
      "street": "",
      "zip": "",
      "coordinates": {
        "lat": 39.561251,
        "lng": -104.907769
      },
      "acceptedMaterials": [
        "Clothing",
        "Furniture",
        "Homewares"
      ],
      "logo": "goodwill.jpg",
      "permalink": "https://www.clothedonations.com/colorado/goodwill-highlands-ranch/",
      "lastUpdated": "7/10/2024"
    },
    {
      "id": "20378",
      "title": "Goodwill - Highlands Ranch",
      "company": "Goodwill",
      "description": "Goodwill is a non-profit organization that initiates community-based programs related to gainful employment. It was founded in 1902 in Boston.\n\nThe accept financial donations, as well as clothing and household items in usable condition. If you're not sure whether they can accept your donation, please give them a call beforehand.",
      "state": "Colorado",
      "stateSlug": "colorado",
      "city": "Unknown",
      "address": "9579 S University Blvd, Highlands Ranch, CO 80130, USA",
      "street": "9579 South University Boulevard",
      "zip": "80126",
      "coordinates": {
        "lat": 39.54252,
        "lng": -104.938656
      },
      "acceptedMaterials": [
        "Clothing",
        "Furniture",
        "Homewares"
      ],
      "logo": "goodwill.jpg",
      "permalink": "https://www.clothedonations.com/colorado/goodwill-highlands-ranch-2/",
      "lastUpdated": "7/10/2024"
    },
    {
      "id": "20379",
      "title": "Goodwill - Littleton",
      "company": "Goodwill",
      "description": "Goodwill is a non-profit organization that initiates community-based programs related to gainful employment. It was founded in 1902 in Boston.\n\nThe accept financial donations, as well as clothing and household items in usable condition. If you're not sure whether they can accept your donation, please give them a call beforehand.",
      "state": "Colorado",
      "stateSlug": "colorado",
      "city": "Unknown",
      "address": "161 W County Line Rd, Highlands Ranch, CO 80129, USA",
      "street": "",
      "zip": "",
      "coordinates": {
        "lat": 39.56723,
        "lng": -104.990416
      },
      "acceptedMaterials": [
        "Clothing",
        "Furniture",
        "Homewares"
      ],
      "logo": "goodwill.jpg",
      "permalink": "https://www.clothedonations.com/colorado/goodwill-littleton/",
      "lastUpdated": "7/10/2024"
    },
    {
      "id": "20590",
      "title": "Goodwill - Lafayette",
      "company": "Goodwill",
      "description": "Goodwill is a non-profit organization that initiates community-based programs related to gainful employment. It was founded in 1902 in Boston.\n\nThe accept financial donations, as well as clothing and household items in usable condition. If you're not sure whether they can accept your donation, please give them a call beforehand.",
      "state": "Colorado",
      "stateSlug": "colorado",
      "city": "Unknown",
      "address": "555 W South Boulder Rd, Lafayette, CO 80026, USA",
      "street": "555 West South Boulder Road",
      "zip": "80026",
      "coordinates": {
        "lat": 39.988882,
        "lng": -105.096478
      },
      "acceptedMaterials": [
        "Clothing",
        "Furniture",
        "Homewares"
      ],
      "logo": "goodwill.jpg",
      "permalink": "https://www.clothedonations.com/colorado/goodwill-lafayette/",
      "lastUpdated": "7/10/2024"
    },
    {
      "id": "20606",
      "title": "Goodwill - Lakewood",
      "company": "Goodwill",
      "description": "Goodwill is a non-profit organization that initiates community-based programs related to gainful employment. It was founded in 1902 in Boston.\n\nThe accept financial donations, as well as clothing and household items in usable condition. If you're not sure whether they can accept your donation, please give them a call beforehand.",
      "state": "Colorado",
      "stateSlug": "colorado",
      "city": "Lakewood",
      "address": "1450 S Wadsworth Blvd, Lakewood, CO 80232, USA",
      "street": "1450 South Wadsworth Boulevard",
      "zip": "80232",
      "coordinates": {
        "lat": 39.690285,
        "lng": -105.080858
      },
      "acceptedMaterials": [
        "Clothing",
        "Furniture",
        "Homewares"
      ],
      "logo": "goodwill.jpg",
      "permalink": "https://www.clothedonations.com/colorado/goodwill-lakewood/",
      "lastUpdated": "7/10/2024"
    },
    {
      "id": "20699",
      "title": "Goodwill - Centennial",
      "company": "Goodwill",
      "description": "Goodwill is a non-profit organization that initiates community-based programs related to gainful employment. It was founded in 1902 in Boston.\n\nThe accept financial donations, as well as clothing and household items in usable condition. If you're not sure whether they can accept your donation, please give them a call beforehand.",
      "state": "Colorado",
      "stateSlug": "colorado",
      "city": "Unknown",
      "address": "8168 S Holly St, Littleton, CO 80122, USA",
      "street": "",
      "zip": "",
      "coordinates": {
        "lat": 39.56798,
        "lng": -104.92246
      },
      "acceptedMaterials": [
        "Clothing",
        "Furniture",
        "Homewares"
      ],
      "logo": "goodwill.jpg",
      "permalink": "https://www.clothedonations.com/colorado/goodwill-centennial/",
      "lastUpdated": "7/10/2024"
    },
    {
      "id": "20700",
      "title": "Goodwill - Littleton",
      "company": "Goodwill",
      "description": "Goodwill is a non-profit organization that initiates community-based programs related to gainful employment. It was founded in 1902 in Boston.\n\nThe accept financial donations, as well as clothing and household items in usable condition. If you're not sure whether they can accept your donation, please give them a call beforehand.",
      "state": "Colorado",
      "stateSlug": "colorado",
      "city": "Unknown",
      "address": "11561 W Hialeah Pl, Littleton, CO 80127, USA",
      "street": "11561 West Hialeah Place",
      "zip": "80127",
      "coordinates": {
        "lat": 39.623693,
        "lng": -105.127632
      },
      "acceptedMaterials": [
        "Clothing",
        "Furniture",
        "Homewares"
      ],
      "logo": "goodwill.jpg",
      "permalink": "https://www.clothedonations.com/colorado/goodwill-littleton-2/",
      "lastUpdated": "7/10/2024"
    },
    {
      "id": "20701",
      "title": "Goodwill - Littleton",
      "company": "Goodwill",
      "description": "Goodwill is a non-profit organization that initiates community-based programs related to gainful employment. It was founded in 1902 in Boston.\n\nThe accept financial donations, as well as clothing and household items in usable condition. If you're not sure whether they can accept your donation, please give them a call beforehand.",
      "state": "Colorado",
      "stateSlug": "colorado",
      "city": "Unknown",
      "address": "6710 S Pierce St, Littleton, CO 80128, USA",
      "street": "",
      "zip": "",
      "coordinates": {
        "lat": 39.594792,
        "lng": -105.072569
      },
      "acceptedMaterials": [
        "Clothing",
        "Furniture",
        "Homewares"
      ],
      "logo": "goodwill.jpg",
      "permalink": "https://www.clothedonations.com/colorado/goodwill-littleton-3/",
      "lastUpdated": "7/10/2024"
    },
    {
      "id": "20711",
      "title": "Goodwill - Longmont",
      "company": "Goodwill",
      "description": "Goodwill is a non-profit organization that initiates community-based programs related to gainful employment. It was founded in 1902 in Boston.\n\nThe accept financial donations, as well as clothing and household items in usable condition. If you're not sure whether they can accept your donation, please give them a call beforehand.",
      "state": "Colorado",
      "stateSlug": "colorado",
      "city": "Longmont",
      "address": "1750 Main St, Longmont, CO 80501, USA",
      "street": "1750 Main Street",
      "zip": "80501",
      "coordinates": {
        "lat": 40.190958,
        "lng": -105.100852
      },
      "acceptedMaterials": [
        "Clothing",
        "Furniture",
        "Homewares"
      ],
      "logo": "goodwill.jpg",
      "permalink": "https://www.clothedonations.com/colorado/goodwill-longmont/",
      "lastUpdated": "7/10/2024"
    },
    {
      "id": "20741",
      "title": "Goodwill - Loveland",
      "company": "Goodwill",
      "description": "Goodwill is a non-profit organization that initiates community-based programs related to gainful employment. It was founded in 1902 in Boston.\n\nThe accept financial donations, as well as clothing and household items in usable condition. If you're not sure whether they can accept your donation, please give them a call beforehand.",
      "state": "Colorado",
      "stateSlug": "colorado",
      "city": "Loveland",
      "address": "935 E Eisenhower Blvd, Loveland, CO 80537, USA",
      "street": "935 East Eisenhower Boulevard",
      "zip": "80537",
      "coordinates": {
        "lat": 40.408065,
        "lng": -105.065148
      },
      "acceptedMaterials": [
        "Clothing",
        "Furniture",
        "Homewares"
      ],
      "logo": "goodwill.jpg",
      "permalink": "https://www.clothedonations.com/colorado/goodwill-loveland/",
      "lastUpdated": "7/10/2024"
    },
    {
      "id": "21217",
      "title": "Goodwill - Parker",
      "company": "Goodwill",
      "description": "Goodwill is a non-profit organization that initiates community-based programs related to gainful employment. It was founded in 1902 in Boston.\n\nThe accept financial donations, as well as clothing and household items in usable condition. If you're not sure whether they can accept your donation, please give them a call beforehand.",
      "state": "Colorado",
      "stateSlug": "colorado",
      "city": "Unknown",
      "address": "11000 S Parker Rd, Parker, CO 80134, USA",
      "street": "11000 South Parker Road",
      "zip": "80134",
      "coordinates": {
        "lat": 39.516208,
        "lng": -104.76358
      },
      "acceptedMaterials": [
        "Clothing",
        "Furniture",
        "Homewares"
      ],
      "logo": "goodwill.jpg",
      "permalink": "https://www.clothedonations.com/colorado/goodwill-parker/",
      "lastUpdated": "7/10/2024"
    },
    {
      "id": "21620",
      "title": "Goodwill - Thornton",
      "company": "Goodwill",
      "description": "Goodwill is a non-profit organization that initiates community-based programs related to gainful employment. It was founded in 1902 in Boston.\n\nThe accept financial donations, as well as clothing and household items in usable condition. If you're not sure whether they can accept your donation, please give them a call beforehand.",
      "state": "Colorado",
      "stateSlug": "colorado",
      "city": "Thornton",
      "address": "770 E 104th Ave, Thornton, CO 80233, USA",
      "street": "770 East 104th Avenue",
      "zip": "80233",
      "coordinates": {
        "lat": 39.883748,
        "lng": -104.97465
      },
      "acceptedMaterials": [
        "Clothing",
        "Furniture",
        "Homewares"
      ],
      "logo": "goodwill.jpg",
      "permalink": "https://www.clothedonations.com/colorado/goodwill-thornton/",
      "lastUpdated": "7/10/2024"
    }
  ]
}