{
  "name": "Kentucky",
  "slug": "kentucky",
  "locations": [
    {
      "id": "17916",
      "title": "Salvation Army - Covington",
      "company": "Salvation Army",
      "description": "The Salvation Army was founded in London in 1865. Since then it has grown into a global charitable organization, currently serving in 130 countries.\n\nFinancial donations are more than welcome, but they also accept goods such as clothing, houseware, home appliances, furniture, and others. If you're not sure whether they can accept your donation, please give them a call beforehand.",
      "state": "Kentucky",
      "stateSlug": "kentucky",
      "city": "Unknown",
      "address": "The Molloy Building, 1100 W Pike St, Covington, KY 41011, USA",
      "street": "",
      "zip": "",
      "latitude": 39.075452,
      "longitude": -84.523412,
      "acceptedMaterials": [
        "Appliances",
        "Clothing",
        "Furniture",
        "Homewares"
      ],
      "logo": "salvation-army.jpg",
      "permalink": "https://www.clothedonations.com/kentucky/salvation-army-covington/",
      "lastUpdated": "7/10/2024"
    },
    {
      "id": "17926",
      "title": "Salvation Army - Cynthiana",
      "company": "Salvation Army",
      "description": "The Salvation Army was founded in London in 1865. Since then it has grown into a global charitable organization, currently serving in 130 countries.\n\nFinancial donations are more than welcome, but they also accept goods such as clothing, houseware, home appliances, furniture, and others. If you're not sure whether they can accept your donation, please give them a call beforehand.",
      "state": "Kentucky",
      "stateSlug": "kentucky",
      "city": "Unknown",
      "address": "202 W Pleasant St, Cynthiana, KY 41031, USA",
      "street": "202 West Pleasant Street",
      "zip": "41031",
      "latitude": 38.390949,
      "longitude": -84.29916,
      "acceptedMaterials": [
        "Appliances",
        "Clothing",
        "Furniture",
        "Homewares"
      ],
      "logo": "salvation-army.jpg",
      "permalink": "https://www.clothedonations.com/kentucky/salvation-army-cynthiana/",
      "lastUpdated": "7/10/2024"
    },
    {
      "id": "18006",
      "title": "Salvation Army - Erlanger",
      "company": "Salvation Army",
      "description": "The Salvation Army was founded in London in 1865. Since then it has grown into a global charitable organization, currently serving in 130 countries.\n\nFinancial donations are more than welcome, but they also accept goods such as clothing, houseware, home appliances, furniture, and others. If you're not sure whether they can accept your donation, please give them a call beforehand.",
      "state": "Kentucky",
      "stateSlug": "kentucky",
      "city": "Unknown",
      "address": "525 Graves Ave, Erlanger, KY 41018, USA",
      "street": "525 Graves Avenue",
      "zip": "41018",
      "latitude": 39.022934,
      "longitude": -84.610339,
      "acceptedMaterials": [
        "Appliances",
        "Clothing",
        "Furniture",
        "Homewares"
      ],
      "logo": "salvation-army.jpg",
      "permalink": "https://www.clothedonations.com/kentucky/salvation-army-erlanger/",
      "lastUpdated": "7/10/2024"
    },
    {
      "id": "18087",
      "title": "Salvation Army - Georgetown",
      "company": "Salvation Army",
      "description": "The Salvation Army was founded in London in 1865. Since then it has grown into a global charitable organization, currently serving in 130 countries.\n\nFinancial donations are more than welcome, but they also accept goods such as clothing, houseware, home appliances, furniture, and others. If you're not sure whether they can accept your donation, please give them a call beforehand.",
      "state": "Kentucky",
      "stateSlug": "kentucky",
      "city": "Unknown",
      "address": "100 Washington Square, Georgetown, KY 40324, USA",
      "street": "",
      "zip": "",
      "latitude": 38.190675,
      "longitude": -84.559522,
      "acceptedMaterials": [
        "Appliances",
        "Clothing",
        "Furniture",
        "Homewares"
      ],
      "logo": "salvation-army.jpg",
      "permalink": "https://www.clothedonations.com/kentucky/salvation-army-georgetown/",
      "lastUpdated": "7/10/2024"
    },
    {
      "id": "18088",
      "title": "Salvation Army - Georgetown",
      "company": "Salvation Army",
      "description": "The Salvation Army was founded in London in 1865. Since then it has grown into a global charitable organization, currently serving in 130 countries.\n\nFinancial donations are more than welcome, but they also accept goods such as clothing, houseware, home appliances, furniture, and others. If you're not sure whether they can accept your donation, please give them a call beforehand.",
      "state": "Kentucky",
      "stateSlug": "kentucky",
      "city": "Unknown",
      "address": "319 E Main St, Georgetown, KY 40324, USA",
      "street": "319 East Main Street",
      "zip": "40324",
      "latitude": 38.209964,
      "longitude": -84.556472,
      "acceptedMaterials": [
        "Appliances",
        "Clothing",
        "Furniture",
        "Homewares"
      ],
      "logo": "salvation-army.jpg",
      "permalink": "https://www.clothedonations.com/kentucky/salvation-army-georgetown-2/",
      "lastUpdated": "7/10/2024"
    },
    {
      "id": "18131",
      "title": "Salvation Army - Hebron",
      "company": "Salvation Army",
      "description": "The Salvation Army was founded in London in 1865. Since then it has grown into a global charitable organization, currently serving in 130 countries.\n\nFinancial donations are more than welcome, but they also accept goods such as clothing, houseware, home appliances, furniture, and others. If you're not sure whether they can accept your donation, please give them a call beforehand.",
      "state": "Kentucky",
      "stateSlug": "kentucky",
      "city": "Unknown",
      "address": "825 Lindbergh Ct, Hebron, KY 41048, USA",
      "street": "",
      "zip": "",
      "latitude": 39.079338,
      "longitude": -84.660205,
      "acceptedMaterials": [
        "Appliances",
        "Clothing",
        "Furniture",
        "Homewares"
      ],
      "logo": "salvation-army.jpg",
      "permalink": "https://www.clothedonations.com/kentucky/salvation-army-hebron/",
      "lastUpdated": "7/10/2024"
    },
    {
      "id": "18287",
      "title": "Salvation Army - Lexington",
      "company": "Salvation Army",
      "description": "The Salvation Army was founded in London in 1865. Since then it has grown into a global charitable organization, currently serving in 130 countries.\n\nFinancial donations are more than welcome, but they also accept goods such as clothing, houseware, home appliances, furniture, and others. If you're not sure whether they can accept your donation, please give them a call beforehand.",
      "state": "Kentucky",
      "stateSlug": "kentucky",
      "city": "Lexington",
      "address": "2285 Versailles Rd, Lexington, KY 40504, USA",
      "street": "2285 Versailles Road",
      "zip": "40504",
      "latitude": 38.047565,
      "longitude": -84.551457,
      "acceptedMaterials": [
        "Appliances",
        "Clothing",
        "Furniture",
        "Homewares"
      ],
      "logo": "salvation-army.jpg",
      "permalink": "https://www.clothedonations.com/kentucky/salvation-army-lexington/",
      "lastUpdated": "7/10/2024"
    },
    {
      "id": "18288",
      "title": "Salvation Army - Lexington",
      "company": "Salvation Army",
      "description": "The Salvation Army was founded in London in 1865. Since then it has grown into a global charitable organization, currently serving in 130 countries.\n\nFinancial donations are more than welcome, but they also accept goods such as clothing, houseware, home appliances, furniture, and others. If you're not sure whether they can accept your donation, please give them a call beforehand.",
      "state": "Kentucky",
      "stateSlug": "kentucky",
      "city": "Lexington",
      "address": "2520 Nicholasville Rd, Lexington, KY 40503, USA",
      "street": "2520 Nicholasville Road",
      "zip": "40503",
      "latitude": 37.998283,
      "longitude": -84.518428,
      "acceptedMaterials": [
        "Appliances",
        "Clothing",
        "Furniture",
        "Homewares"
      ],
      "logo": "salvation-army.jpg",
      "permalink": "https://www.clothedonations.com/kentucky/salvation-army-lexington-2/",
      "lastUpdated": "7/10/2024"
    },
    {
      "id": "18289",
      "title": "Salvation Army - Lexington",
      "company": "Salvation Army",
      "description": "The Salvation Army was founded in London in 1865. Since then it has grown into a global charitable organization, currently serving in 130 countries.\n\nFinancial donations are more than welcome, but they also accept goods such as clothing, houseware, home appliances, furniture, and others. If you're not sure whether they can accept your donation, please give them a call beforehand.",
      "state": "Kentucky",
      "stateSlug": "kentucky",
      "city": "Lexington",
      "address": "3090 Helmsdale Pl, Lexington, KY 40509, USA",
      "street": "3090 Helmsdale Place",
      "zip": "40509",
      "latitude": 38.010728,
      "longitude": -84.421534,
      "acceptedMaterials": [
        "Appliances",
        "Clothing",
        "Furniture",
        "Homewares"
      ],
      "logo": "salvation-army.jpg",
      "permalink": "https://www.clothedonations.com/kentucky/salvation-army-lexington-3/",
      "lastUpdated": "7/10/2024"
    },
    {
      "id": "18290",
      "title": "Salvation Army - Lexington",
      "company": "Salvation Army",
      "description": "The Salvation Army was founded in London in 1865. Since then it has grown into a global charitable organization, currently serving in 130 countries.\n\nFinancial donations are more than welcome, but they also accept goods such as clothing, houseware, home appliances, furniture, and others. If you're not sure whether they can accept your donation, please give them a call beforehand.",
      "state": "Kentucky",
      "stateSlug": "kentucky",
      "city": "Lexington",
      "address": "3160 Beaumont Centre Cir, Lexington, KY 40513, USA",
      "street": "3160 Beaumont Centre Circle",
      "zip": "40513",
      "latitude": 38.020031,
      "longitude": -84.557276,
      "acceptedMaterials": [
        "Appliances",
        "Clothing",
        "Furniture",
        "Homewares"
      ],
      "logo": "salvation-army.jpg",
      "permalink": "https://www.clothedonations.com/kentucky/salvation-army-lexington-4/",
      "lastUpdated": "7/10/2024"
    },
    {
      "id": "18291",
      "title": "Salvation Army - Lexington",
      "company": "Salvation Army",
      "description": "The Salvation Army was founded in London in 1865. Since then it has grown into a global charitable organization, currently serving in 130 countries.\n\nFinancial donations are more than welcome, but they also accept goods such as clothing, houseware, home appliances, furniture, and others. If you're not sure whether they can accept your donation, please give them a call beforehand.",
      "state": "Kentucky",
      "stateSlug": "kentucky",
      "city": "Lexington",
      "address": "3330 Partner Pl, Lexington, KY 40503, USA",
      "street": "3330 Partner Place",
      "zip": "40503",
      "latitude": 37.995294,
      "longitude": -84.545417,
      "acceptedMaterials": [
        "Appliances",
        "Clothing",
        "Furniture",
        "Homewares"
      ],
      "logo": "salvation-army.jpg",
      "permalink": "https://www.clothedonations.com/kentucky/salvation-army-lexington-5/",
      "lastUpdated": "7/10/2024"
    },
    {
      "id": "18292",
      "title": "Salvation Army - Lexington",
      "company": "Salvation Army",
      "description": "The Salvation Army was founded in London in 1865. Since then it has grown into a global charitable organization, currently serving in 130 countries.\n\nFinancial donations are more than welcome, but they also accept goods such as clothing, houseware, home appliances, furniture, and others. If you're not sure whether they can accept your donation, please give them a call beforehand.",
      "state": "Kentucky",
      "stateSlug": "kentucky",
      "city": "Lexington",
      "address": "736 W Main St, Lexington, KY 40508, USA",
      "street": "736 West Main Street",
      "zip": "40508",
      "latitude": 38.052835,
      "longitude": -84.505259,
      "acceptedMaterials": [
        "Appliances",
        "Clothing",
        "Furniture",
        "Homewares"
      ],
      "logo": "salvation-army.jpg",
      "permalink": "https://www.clothedonations.com/kentucky/salvation-army-lexington-6/",
      "lastUpdated": "7/10/2024"
    },
    {
      "id": "18467",
      "title": "Salvation Army - Newport",
      "company": "Salvation Army",
      "description": "The Salvation Army was founded in London in 1865. Since then it has grown into a global charitable organization, currently serving in 130 countries.\n\nFinancial donations are more than welcome, but they also accept goods such as clothing, houseware, home appliances, furniture, and others. If you're not sure whether they can accept your donation, please give them a call beforehand.",
      "state": "Kentucky",
      "stateSlug": "kentucky",
      "city": "Unknown",
      "address": "340 W 10th St, Newport, KY 41071, USA",
      "street": "340 West 10th Street",
      "zip": "41071",
      "latitude": 39.083231,
      "longitude": -84.495568,
      "acceptedMaterials": [
        "Appliances",
        "Clothing",
        "Furniture",
        "Homewares"
      ],
      "logo": "salvation-army.jpg",
      "permalink": "https://www.clothedonations.com/kentucky/salvation-army-newport/",
      "lastUpdated": "7/10/2024"
    },
    {
      "id": "18470",
      "title": "Salvation Army - Nicholasville",
      "company": "Salvation Army",
      "description": "The Salvation Army was founded in London in 1865. Since then it has grown into a global charitable organization, currently serving in 130 countries.\n\nFinancial donations are more than welcome, but they also accept goods such as clothing, houseware, home appliances, furniture, and others. If you're not sure whether they can accept your donation, please give them a call beforehand.",
      "state": "Kentucky",
      "stateSlug": "kentucky",
      "city": "Unknown",
      "address": "205 S 1st St, Nicholasville, KY 40356, USA",
      "street": "205 South 1st Street",
      "zip": "40356",
      "latitude": 37.879142,
      "longitude": -84.574686,
      "acceptedMaterials": [
        "Appliances",
        "Clothing",
        "Furniture",
        "Homewares"
      ],
      "logo": "salvation-army.jpg",
      "permalink": "https://www.clothedonations.com/kentucky/salvation-army-nicholasville/",
      "lastUpdated": "7/10/2024"
    },
    {
      "id": "19601",
      "title": "Goodwill - Barbourville",
      "company": "Goodwill",
      "description": "Goodwill is a non-profit organization that initiates community-based programs related to gainful employment. It was founded in 1902 in Boston.\n\nThe accept financial donations, as well as clothing and household items in usable condition. If you're not sure whether they can accept your donation, please give them a call beforehand.",
      "state": "Kentucky",
      "stateSlug": "kentucky",
      "city": "Unknown",
      "address": "1803 US-25E Scenic, Barbourville, KY 40906, USA",
      "street": "",
      "zip": "",
      "latitude": 36.852243,
      "longitude": -83.856953,
      "acceptedMaterials": [
        "Clothing",
        "Furniture",
        "Homewares"
      ],
      "logo": "goodwill.jpg",
      "permalink": "https://www.clothedonations.com/kentucky/goodwill-barbourville/",
      "lastUpdated": "7/10/2024"
    },
    {
      "id": "19602",
      "title": "Goodwill - Barbourville",
      "company": "Goodwill",
      "description": "Goodwill is a non-profit organization that initiates community-based programs related to gainful employment. It was founded in 1902 in Boston.\n\nThe accept financial donations, as well as clothing and household items in usable condition. If you're not sure whether they can accept your donation, please give them a call beforehand.",
      "state": "Kentucky",
      "stateSlug": "kentucky",
      "city": "Unknown",
      "address": "1803 US-25E Scenic, Barbourville, KY 40906, USA",
      "street": "",
      "zip": "",
      "latitude": 36.852243,
      "longitude": -83.856953,
      "acceptedMaterials": [
        "Clothing",
        "Furniture",
        "Homewares"
      ],
      "logo": "goodwill.jpg",
      "permalink": "https://www.clothedonations.com/kentucky/goodwill-barbourville-2/",
      "lastUpdated": "7/10/2024"
    },
    {
      "id": "19603",
      "title": "Goodwill - Bardstown",
      "company": "Goodwill",
      "description": "Goodwill is a non-profit organization that initiates community-based programs related to gainful employment. It was founded in 1902 in Boston.\n\nThe accept financial donations, as well as clothing and household items in usable condition. If you're not sure whether they can accept your donation, please give them a call beforehand.",
      "state": "Kentucky",
      "stateSlug": "kentucky",
      "city": "Unknown",
      "address": "219 Padgett St, Bardstown, KY 40004, USA",
      "street": "",
      "zip": "",
      "latitude": 37.829018,
      "longitude": -85.462092,
      "acceptedMaterials": [
        "Clothing",
        "Furniture",
        "Homewares"
      ],
      "logo": "goodwill.jpg",
      "permalink": "https://www.clothedonations.com/kentucky/goodwill-bardstown/",
      "lastUpdated": "7/10/2024"
    },
    {
      "id": "19667",
      "title": "Goodwill - Berea",
      "company": "Goodwill",
      "description": "Goodwill is a non-profit organization that initiates community-based programs related to gainful employment. It was founded in 1902 in Boston.\n\nThe accept financial donations, as well as clothing and household items in usable condition. If you're not sure whether they can accept your donation, please give them a call beforehand.",
      "state": "Kentucky",
      "stateSlug": "kentucky",
      "city": "Unknown",
      "address": "112 Prince Royal Dr, Berea, KY 40403, USA",
      "street": "112 Prince Royal Drive",
      "zip": "40403",
      "latitude": 37.571042,
      "longitude": -84.309907,
      "acceptedMaterials": [
        "Clothing",
        "Furniture",
        "Homewares"
      ],
      "logo": "goodwill.jpg",
      "permalink": "https://www.clothedonations.com/kentucky/goodwill-berea/",
      "lastUpdated": "7/10/2024"
    },
    {
      "id": "19668",
      "title": "Goodwill - Berea",
      "company": "Goodwill",
      "description": "Goodwill is a non-profit organization that initiates community-based programs related to gainful employment. It was founded in 1902 in Boston.\n\nThe accept financial donations, as well as clothing and household items in usable condition. If you're not sure whether they can accept your donation, please give them a call beforehand.",
      "state": "Kentucky",
      "stateSlug": "kentucky",
      "city": "Unknown",
      "address": "112 Prince Royal Dr, Berea, KY 40403, USA",
      "street": "112 Prince Royal Drive",
      "zip": "40403",
      "latitude": 37.571042,
      "longitude": -84.309907,
      "acceptedMaterials": [
        "Clothing",
        "Furniture",
        "Homewares"
      ],
      "logo": "goodwill.jpg",
      "permalink": "https://www.clothedonations.com/kentucky/goodwill-berea-2/",
      "lastUpdated": "7/10/2024"
    },
    {
      "id": "19714",
      "title": "Goodwill - Bowling Green",
      "company": "Goodwill",
      "description": "Goodwill is a non-profit organization that initiates community-based programs related to gainful employment. It was founded in 1902 in Boston.\n\nThe accept financial donations, as well as clothing and household items in usable condition. If you're not sure whether they can accept your donation, please give them a call beforehand.",
      "state": "Kentucky",
      "stateSlug": "kentucky",
      "city": "Unknown",
      "address": "1806 U.S. 31 W Bypass, Bowling Green, KY 42101, USA",
      "street": "",
      "zip": "",
      "latitude": 36.978787,
      "longitude": -86.453803,
      "acceptedMaterials": [
        "Clothing",
        "Furniture",
        "Homewares"
      ],
      "logo": "goodwill.jpg",
      "permalink": "https://www.clothedonations.com/kentucky/goodwill-bowling-green/",
      "lastUpdated": "7/10/2024"
    },
    {
      "id": "19715",
      "title": "Goodwill - Bowling Green",
      "company": "Goodwill",
      "description": "Goodwill is a non-profit organization that initiates community-based programs related to gainful employment. It was founded in 1902 in Boston.\n\nThe accept financial donations, as well as clothing and household items in usable condition. If you're not sure whether they can accept your donation, please give them a call beforehand.",
      "state": "Kentucky",
      "stateSlug": "kentucky",
      "city": "Bowling Green",
      "address": "5395 Scottsville Rd, Bowling Green, KY 42104, USA",
      "street": "5395 Scottsville Road",
      "zip": "42104",
      "latitude": 36.922004,
      "longitude": -86.410324,
      "acceptedMaterials": [
        "Clothing",
        "Furniture",
        "Homewares"
      ],
      "logo": "goodwill.jpg",
      "permalink": "https://www.clothedonations.com/kentucky/goodwill-bowling-green-2/",
      "lastUpdated": "7/10/2024"
    },
    {
      "id": "19716",
      "title": "Goodwill - Bowling Green",
      "company": "Goodwill",
      "description": "Goodwill is a non-profit organization that initiates community-based programs related to gainful employment. It was founded in 1902 in Boston.\n\nThe accept financial donations, as well as clothing and household items in usable condition. If you're not sure whether they can accept your donation, please give them a call beforehand.",
      "state": "Kentucky",
      "stateSlug": "kentucky",
      "city": "Unknown",
      "address": "740 U.S. 31 W Bypass, Bowling Green, KY 42101, USA",
      "street": "",
      "zip": "",
      "latitude": 36.985342,
      "longitude": -86.430712,
      "acceptedMaterials": [
        "Clothing",
        "Furniture",
        "Homewares"
      ],
      "logo": "goodwill.jpg",
      "permalink": "https://www.clothedonations.com/kentucky/goodwill-bowling-green-3/",
      "lastUpdated": "7/10/2024"
    },
    {
      "id": "19717",
      "title": "Goodwill - Bowling Green",
      "company": "Goodwill",
      "description": "Goodwill is a non-profit organization that initiates community-based programs related to gainful employment. It was founded in 1902 in Boston.\n\nThe accept financial donations, as well as clothing and household items in usable condition. If you're not sure whether they can accept your donation, please give them a call beforehand.",
      "state": "Kentucky",
      "stateSlug": "kentucky",
      "city": "Bowling Green",
      "address": "808 Campbell Ln, Bowling Green, KY 42101, USA",
      "street": "808 Campbell Lane",
      "zip": "42104",
      "latitude": 36.962022,
      "longitude": -86.461145,
      "acceptedMaterials": [
        "Clothing",
        "Furniture",
        "Homewares"
      ],
      "logo": "goodwill.jpg",
      "permalink": "https://www.clothedonations.com/kentucky/goodwill-bowling-green-4/",
      "lastUpdated": "7/10/2024"
    },
    {
      "id": "19778",
      "title": "Goodwill - Campbellsville",
      "company": "Goodwill",
      "description": "Goodwill is a non-profit organization that initiates community-based programs related to gainful employment. It was founded in 1902 in Boston.\n\nThe accept financial donations, as well as clothing and household items in usable condition. If you're not sure whether they can accept your donation, please give them a call beforehand.",
      "state": "Kentucky",
      "stateSlug": "kentucky",
      "city": "Unknown",
      "address": "550 Campbellsville Bypass, Campbellsville, KY 42718, USA",
      "street": "550 Campbellsville Bypass",
      "zip": "42718",
      "latitude": 37.3457,
      "longitude": -85.369371,
      "acceptedMaterials": [
        "Clothing",
        "Furniture",
        "Homewares"
      ],
      "logo": "goodwill.jpg",
      "permalink": "https://www.clothedonations.com/kentucky/goodwill-campbellsville/",
      "lastUpdated": "7/10/2024"
    },
    {
      "id": "19828",
      "title": "Goodwill - Central City",
      "company": "Goodwill",
      "description": "Goodwill is a non-profit organization that initiates community-based programs related to gainful employment. It was founded in 1902 in Boston.\n\nThe accept financial donations, as well as clothing and household items in usable condition. If you're not sure whether they can accept your donation, please give them a call beforehand.",
      "state": "Kentucky",
      "stateSlug": "kentucky",
      "city": "Unknown",
      "address": "220 S 2nd St, Central City, KY 42330, USA",
      "street": "South 2nd Street",
      "zip": "42330",
      "latitude": 37.29114,
      "longitude": -87.120855,
      "acceptedMaterials": [
        "Clothing",
        "Furniture",
        "Homewares"
      ],
      "logo": "goodwill.jpg",
      "permalink": "https://www.clothedonations.com/kentucky/goodwill-central-city/",
      "lastUpdated": "7/10/2024"
    },
    {
      "id": "19925",
      "title": "Goodwill - Columbia",
      "company": "Goodwill",
      "description": "Goodwill is a non-profit organization that initiates community-based programs related to gainful employment. It was founded in 1902 in Boston.\n\nThe accept financial donations, as well as clothing and household items in usable condition. If you're not sure whether they can accept your donation, please give them a call beforehand.",
      "state": "Kentucky",
      "stateSlug": "kentucky",
      "city": "Unknown",
      "address": "212 Dohoney Trce, Columbia, KY 42728, USA",
      "street": "212 Dohoney Trace",
      "zip": "42728",
      "latitude": 37.077842,
      "longitude": -85.334257,
      "acceptedMaterials": [
        "Clothing",
        "Furniture",
        "Homewares"
      ],
      "logo": "goodwill.jpg",
      "permalink": "https://www.clothedonations.com/kentucky/goodwill-columbia/",
      "lastUpdated": "7/10/2024"
    },
    {
      "id": "19997",
      "title": "Goodwill - Crestwood",
      "company": "Goodwill",
      "description": "Goodwill is a non-profit organization that initiates community-based programs related to gainful employment. It was founded in 1902 in Boston.\n\nThe accept financial donations, as well as clothing and household items in usable condition. If you're not sure whether they can accept your donation, please give them a call beforehand.",
      "state": "Kentucky",
      "stateSlug": "kentucky",
      "city": "Unknown",
      "address": "6438 KY-146, Crestwood, KY 40014, USA",
      "street": "Lagrange Road",
      "zip": "40014",
      "latitude": 38.327639,
      "longitude": -85.466443,
      "acceptedMaterials": [
        "Clothing",
        "Furniture",
        "Homewares"
      ],
      "logo": "goodwill.jpg",
      "permalink": "https://www.clothedonations.com/kentucky/goodwill-crestwood/",
      "lastUpdated": "7/10/2024"
    },
    {
      "id": "20020",
      "title": "Goodwill - Danville",
      "company": "Goodwill",
      "description": "Goodwill is a non-profit organization that initiates community-based programs related to gainful employment. It was founded in 1902 in Boston.\n\nThe accept financial donations, as well as clothing and household items in usable condition. If you're not sure whether they can accept your donation, please give them a call beforehand.",
      "state": "Kentucky",
      "stateSlug": "kentucky",
      "city": "Unknown",
      "address": "252 Skywatch Dr, Danville, KY 40422, USA",
      "street": "Skywatch Drive",
      "zip": "40422",
      "latitude": 37.617702,
      "longitude": -84.785321,
      "acceptedMaterials": [
        "Clothing",
        "Furniture",
        "Homewares"
      ],
      "logo": "goodwill.jpg",
      "permalink": "https://www.clothedonations.com/kentucky/goodwill-danville/",
      "lastUpdated": "7/10/2024"
    },
    {
      "id": "20109",
      "title": "Goodwill - Elizabethtown",
      "company": "Goodwill",
      "description": "Goodwill is a non-profit organization that initiates community-based programs related to gainful employment. It was founded in 1902 in Boston.\n\nThe accept financial donations, as well as clothing and household items in usable condition. If you're not sure whether they can accept your donation, please give them a call beforehand.",
      "state": "Kentucky",
      "stateSlug": "kentucky",
      "city": "Unknown",
      "address": "2003 N Dixie Hwy, Elizabethtown, KY 42701, USA",
      "street": "",
      "zip": "",
      "latitude": 37.739242,
      "longitude": -85.888796,
      "acceptedMaterials": [
        "Clothing",
        "Furniture",
        "Homewares"
      ],
      "logo": "goodwill.jpg",
      "permalink": "https://www.clothedonations.com/kentucky/goodwill-elizabethtown/",
      "lastUpdated": "7/10/2024"
    },
    {
      "id": "20110",
      "title": "Goodwill - Elizabethtown",
      "company": "Goodwill",
      "description": "Goodwill is a non-profit organization that initiates community-based programs related to gainful employment. It was founded in 1902 in Boston.\n\nThe accept financial donations, as well as clothing and household items in usable condition. If you're not sure whether they can accept your donation, please give them a call beforehand.",
      "state": "Kentucky",
      "stateSlug": "kentucky",
      "city": "Elizabethtown",
      "address": "3032 Ring Rd, Elizabethtown, KY 42701, USA",
      "street": "3032 Ring Road",
      "zip": "42701",
      "latitude": 37.710994,
      "longitude": -85.839135,
      "acceptedMaterials": [
        "Clothing",
        "Furniture",
        "Homewares"
      ],
      "logo": "goodwill.jpg",
      "permalink": "https://www.clothedonations.com/kentucky/goodwill-elizabethtown-2/",
      "lastUpdated": "7/10/2024"
    },
    {
      "id": "20204",
      "title": "Goodwill - Frankfort",
      "company": "Goodwill",
      "description": "Goodwill is a non-profit organization that initiates community-based programs related to gainful employment. It was founded in 1902 in Boston.\n\nThe accept financial donations, as well as clothing and household items in usable condition. If you're not sure whether they can accept your donation, please give them a call beforehand.",
      "state": "Kentucky",
      "stateSlug": "kentucky",
      "city": "Frankfort",
      "address": "121 Arrowhead Ct, Frankfort, KY 40601, USA",
      "street": "Arrowhead Court",
      "zip": "40601",
      "latitude": 38.183997,
      "longitude": -84.818673,
      "acceptedMaterials": [
        "Clothing",
        "Furniture",
        "Homewares"
      ],
      "logo": "goodwill.jpg",
      "permalink": "https://www.clothedonations.com/kentucky/goodwill-frankfort-3/",
      "lastUpdated": "7/10/2024"
    },
    {
      "id": "20240",
      "title": "Goodwill - Georgetown",
      "company": "Goodwill",
      "description": "Goodwill is a non-profit organization that initiates community-based programs related to gainful employment. It was founded in 1902 in Boston.\n\nThe accept financial donations, as well as clothing and household items in usable condition. If you're not sure whether they can accept your donation, please give them a call beforehand.",
      "state": "Kentucky",
      "stateSlug": "kentucky",
      "city": "Unknown",
      "address": "1002 Lexington Rd #8, Georgetown, KY 40324, USA",
      "street": "",
      "zip": "",
      "latitude": 38.189925,
      "longitude": -84.560498,
      "acceptedMaterials": [
        "Clothing",
        "Furniture",
        "Homewares"
      ],
      "logo": "goodwill.jpg",
      "permalink": "https://www.clothedonations.com/kentucky/goodwill-georgetown/",
      "lastUpdated": "7/10/2024"
    },
    {
      "id": "20247",
      "title": "Goodwill - Glasgow",
      "company": "Goodwill",
      "description": "Goodwill is a non-profit organization that initiates community-based programs related to gainful employment. It was founded in 1902 in Boston.\n\nThe accept financial donations, as well as clothing and household items in usable condition. If you're not sure whether they can accept your donation, please give them a call beforehand.",
      "state": "Kentucky",
      "stateSlug": "kentucky",
      "city": "Unknown",
      "address": "212 S L Rogers Wells Blvd, Glasgow, KY 42141, USA",
      "street": "212 South L Rogers Wells Boulevard",
      "zip": "42141",
      "latitude": 36.997922,
      "longitude": -85.929616,
      "acceptedMaterials": [
        "Clothing",
        "Furniture",
        "Homewares"
      ],
      "logo": "goodwill.jpg",
      "permalink": "https://www.clothedonations.com/kentucky/goodwill-glasgow/",
      "lastUpdated": "7/10/2024"
    },
    {
      "id": "20325",
      "title": "Goodwill - Harlan",
      "company": "Goodwill",
      "description": "Goodwill is a non-profit organization that initiates community-based programs related to gainful employment. It was founded in 1902 in Boston.\n\nThe accept financial donations, as well as clothing and household items in usable condition. If you're not sure whether they can accept your donation, please give them a call beforehand.",
      "state": "Kentucky",
      "stateSlug": "kentucky",
      "city": "Unknown",
      "address": "108 Village Center Rd, Harlan, KY 40831, USA",
      "street": "",
      "zip": "",
      "latitude": 36.816301,
      "longitude": -83.316348,
      "acceptedMaterials": [
        "Clothing",
        "Furniture",
        "Homewares"
      ],
      "logo": "goodwill.jpg",
      "permalink": "https://www.clothedonations.com/kentucky/goodwill-harlan/",
      "lastUpdated": "7/10/2024"
    },
    {
      "id": "20326",
      "title": "Goodwill - Harlan",
      "company": "Goodwill",
      "description": "Goodwill is a non-profit organization that initiates community-based programs related to gainful employment. It was founded in 1902 in Boston.\n\nThe accept financial donations, as well as clothing and household items in usable condition. If you're not sure whether they can accept your donation, please give them a call beforehand.",
      "state": "Kentucky",
      "stateSlug": "kentucky",
      "city": "Unknown",
      "address": "108 Village Center Rd, Harlan, KY 40831, USA",
      "street": "",
      "zip": "",
      "latitude": 36.816301,
      "longitude": -83.316348,
      "acceptedMaterials": [
        "Clothing",
        "Furniture",
        "Homewares"
      ],
      "logo": "goodwill.jpg",
      "permalink": "https://www.clothedonations.com/kentucky/goodwill-harlan-2/",
      "lastUpdated": "7/10/2024"
    },
    {
      "id": "20335",
      "title": "Goodwill - Harrodsburg",
      "company": "Goodwill",
      "description": "Goodwill is a non-profit organization that initiates community-based programs related to gainful employment. It was founded in 1902 in Boston.\n\nThe accept financial donations, as well as clothing and household items in usable condition. If you're not sure whether they can accept your donation, please give them a call beforehand.",
      "state": "Kentucky",
      "stateSlug": "kentucky",
      "city": "Unknown",
      "address": "908 S College St, Harrodsburg, KY 40330, USA",
      "street": "908 South College Street",
      "zip": "40330",
      "latitude": 37.744736,
      "longitude": -84.843027,
      "acceptedMaterials": [
        "Clothing",
        "Furniture",
        "Homewares"
      ],
      "logo": "goodwill.jpg",
      "permalink": "https://www.clothedonations.com/kentucky/goodwill-harrodsburg/",
      "lastUpdated": "7/10/2024"
    },
    {
      "id": "20336",
      "title": "Goodwill - Harrodsburg",
      "company": "Goodwill",
      "description": "Goodwill is a non-profit organization that initiates community-based programs related to gainful employment. It was founded in 1902 in Boston.\n\nThe accept financial donations, as well as clothing and household items in usable condition. If you're not sure whether they can accept your donation, please give them a call beforehand.",
      "state": "Kentucky",
      "stateSlug": "kentucky",
      "city": "Unknown",
      "address": "908 S College St, Harrodsburg, KY 40330, USA",
      "street": "908 South College Street",
      "zip": "40330",
      "latitude": 37.744736,
      "longitude": -84.843027,
      "acceptedMaterials": [
        "Clothing",
        "Furniture",
        "Homewares"
      ],
      "logo": "goodwill.jpg",
      "permalink": "https://www.clothedonations.com/kentucky/goodwill-harrodsburg-2/",
      "lastUpdated": "7/10/2024"
    },
    {
      "id": "20349",
      "title": "Goodwill - Hazard",
      "company": "Goodwill",
      "description": "Goodwill is a non-profit organization that initiates community-based programs related to gainful employment. It was founded in 1902 in Boston.\n\nThe accept financial donations, as well as clothing and household items in usable condition. If you're not sure whether they can accept your donation, please give them a call beforehand.",
      "state": "Kentucky",
      "stateSlug": "kentucky",
      "city": "Unknown",
      "address": "154 Commerce Drive, Hazard, KY 41701, USA",
      "street": "",
      "zip": "",
      "latitude": 37.294488,
      "longitude": -83.217932,
      "acceptedMaterials": [
        "Clothing",
        "Furniture",
        "Homewares"
      ],
      "logo": "goodwill.jpg",
      "permalink": "https://www.clothedonations.com/kentucky/goodwill-hazard/",
      "lastUpdated": "7/10/2024"
    },
    {
      "id": "20350",
      "title": "Goodwill - Hazard",
      "company": "Goodwill",
      "description": "Goodwill is a non-profit organization that initiates community-based programs related to gainful employment. It was founded in 1902 in Boston.\n\nThe accept financial donations, as well as clothing and household items in usable condition. If you're not sure whether they can accept your donation, please give them a call beforehand.",
      "state": "Kentucky",
      "stateSlug": "kentucky",
      "city": "Unknown",
      "address": "154 Commerce Drive, Hazard, KY 41701, USA",
      "street": "",
      "zip": "",
      "latitude": 37.294488,
      "longitude": -83.217932,
      "acceptedMaterials": [
        "Clothing",
        "Furniture",
        "Homewares"
      ],
      "logo": "goodwill.jpg",
      "permalink": "https://www.clothedonations.com/kentucky/goodwill-hazard-2/",
      "lastUpdated": "7/10/2024"
    },
    {
      "id": "20404",
      "title": "Goodwill - Hopkinsville",
      "company": "Goodwill",
      "description": "Goodwill is a non-profit organization that initiates community-based programs related to gainful employment. It was founded in 1902 in Boston.\n\nThe accept financial donations, as well as clothing and household items in usable condition. If you're not sure whether they can accept your donation, please give them a call beforehand.",
      "state": "Kentucky",
      "stateSlug": "kentucky",
      "city": "Hopkinsville",
      "address": "2624 Fort Campbell Blvd, Hopkinsville, KY 42240, USA",
      "street": "2624 Fort Campbell Boulevard",
      "zip": "42240",
      "latitude": 36.842968,
      "longitude": -87.483069,
      "acceptedMaterials": [
        "Clothing",
        "Furniture",
        "Homewares"
      ],
      "logo": "goodwill.jpg",
      "permalink": "https://www.clothedonations.com/kentucky/goodwill-hopkinsville/",
      "lastUpdated": "7/10/2024"
    },
    {
      "id": "20639",
      "title": "Goodwill - Lawrenceburg",
      "company": "Goodwill",
      "description": "Goodwill is a non-profit organization that initiates community-based programs related to gainful employment. It was founded in 1902 in Boston.\n\nThe accept financial donations, as well as clothing and household items in usable condition. If you're not sure whether they can accept your donation, please give them a call beforehand.",
      "state": "Kentucky",
      "stateSlug": "kentucky",
      "city": "Unknown",
      "address": "1240 Anderson Crossing Dr, Lawrenceburg, KY 40342, USA",
      "street": "",
      "zip": "",
      "latitude": 38.018128,
      "longitude": -84.908921,
      "acceptedMaterials": [
        "Clothing",
        "Furniture",
        "Homewares"
      ],
      "logo": "goodwill.jpg",
      "permalink": "https://www.clothedonations.com/kentucky/goodwill-lawrenceburg/",
      "lastUpdated": "7/10/2024"
    },
    {
      "id": "20653",
      "title": "Goodwill - Lebanon",
      "company": "Goodwill",
      "description": "Goodwill is a non-profit organization that initiates community-based programs related to gainful employment. It was founded in 1902 in Boston.\n\nThe accept financial donations, as well as clothing and household items in usable condition. If you're not sure whether they can accept your donation, please give them a call beforehand.",
      "state": "Kentucky",
      "stateSlug": "kentucky",
      "city": "Unknown",
      "address": "730 W Main St, Lebanon, KY 40033, USA",
      "street": "730 West Main Street",
      "zip": "40033",
      "latitude": 37.560967,
      "longitude": -85.269054,
      "acceptedMaterials": [
        "Clothing",
        "Furniture",
        "Homewares"
      ],
      "logo": "goodwill.jpg",
      "permalink": "https://www.clothedonations.com/kentucky/goodwill-lebanon-2/",
      "lastUpdated": "7/10/2024"
    },
    {
      "id": "20670",
      "title": "Goodwill - Lexington",
      "company": "Goodwill",
      "description": "Goodwill is a non-profit organization that initiates community-based programs related to gainful employment. It was founded in 1902 in Boston.\n\nThe accept financial donations, as well as clothing and household items in usable condition. If you're not sure whether they can accept your donation, please give them a call beforehand.",
      "state": "Kentucky",
      "stateSlug": "kentucky",
      "city": "Unknown",
      "address": "130 W New Cir Rd #115, Lexington, KY 40505, USA",
      "street": "",
      "zip": "",
      "latitude": 38.065897,
      "longitude": -84.472718,
      "acceptedMaterials": [
        "Clothing",
        "Furniture",
        "Homewares"
      ],
      "logo": "goodwill.jpg",
      "permalink": "https://www.clothedonations.com/kentucky/goodwill-lexington/",
      "lastUpdated": "7/10/2024"
    },
    {
      "id": "20671",
      "title": "Goodwill - Lexington",
      "company": "Goodwill",
      "description": "Goodwill is a non-profit organization that initiates community-based programs related to gainful employment. It was founded in 1902 in Boston.\n\nThe accept financial donations, as well as clothing and household items in usable condition. If you're not sure whether they can accept your donation, please give them a call beforehand.",
      "state": "Kentucky",
      "stateSlug": "kentucky",
      "city": "Unknown",
      "address": "130 W New Cir Rd STE 110, Lexington, KY 40505, USA",
      "street": "",
      "zip": "",
      "latitude": 38.065097,
      "longitude": -84.472235,
      "acceptedMaterials": [
        "Clothing",
        "Furniture",
        "Homewares"
      ],
      "logo": "goodwill.jpg",
      "permalink": "https://www.clothedonations.com/kentucky/goodwill-lexington-2/",
      "lastUpdated": "7/10/2024"
    },
    {
      "id": "20672",
      "title": "Goodwill - Lexington",
      "company": "Goodwill",
      "description": "Goodwill is a non-profit organization that initiates community-based programs related to gainful employment. It was founded in 1902 in Boston.\n\nThe accept financial donations, as well as clothing and household items in usable condition. If you're not sure whether they can accept your donation, please give them a call beforehand.",
      "state": "Kentucky",
      "stateSlug": "kentucky",
      "city": "Unknown",
      "address": "130 W New Cir Rd STE 110, Lexington, KY 40505, USA",
      "street": "",
      "zip": "",
      "latitude": 38.065097,
      "longitude": -84.472235,
      "acceptedMaterials": [
        "Clothing",
        "Furniture",
        "Homewares"
      ],
      "logo": "goodwill.jpg",
      "permalink": "https://www.clothedonations.com/kentucky/goodwill-lexington-3/",
      "lastUpdated": "7/10/2024"
    },
    {
      "id": "20673",
      "title": "Goodwill - Lexington",
      "company": "Goodwill",
      "description": "Goodwill is a non-profit organization that initiates community-based programs related to gainful employment. It was founded in 1902 in Boston.\n\nThe accept financial donations, as well as clothing and household items in usable condition. If you're not sure whether they can accept your donation, please give them a call beforehand.",
      "state": "Kentucky",
      "stateSlug": "kentucky",
      "city": "Lexington",
      "address": "1441 Leestown Rd, Lexington, KY 40511, USA",
      "street": "1441 Leestown Road",
      "zip": "40511",
      "latitude": 38.064956,
      "longitude": -84.521318,
      "acceptedMaterials": [
        "Clothing",
        "Furniture",
        "Homewares"
      ],
      "logo": "goodwill.jpg",
      "permalink": "https://www.clothedonations.com/kentucky/goodwill-lexington-4/",
      "lastUpdated": "7/10/2024"
    },
    {
      "id": "20674",
      "title": "Goodwill - Lexington",
      "company": "Goodwill",
      "description": "Goodwill is a non-profit organization that initiates community-based programs related to gainful employment. It was founded in 1902 in Boston.\n\nThe accept financial donations, as well as clothing and household items in usable condition. If you're not sure whether they can accept your donation, please give them a call beforehand.",
      "state": "Kentucky",
      "stateSlug": "kentucky",
      "city": "Unknown",
      "address": "3101 Clays Mill Rd #102A, Lexington, KY 40503, USA",
      "street": "",
      "zip": "",
      "latitude": 38.002681,
      "longitude": -84.54548,
      "acceptedMaterials": [
        "Clothing",
        "Furniture",
        "Homewares"
      ],
      "logo": "goodwill.jpg",
      "permalink": "https://www.clothedonations.com/kentucky/goodwill-lexington-5/",
      "lastUpdated": "7/10/2024"
    },
    {
      "id": "20675",
      "title": "Goodwill - Lexington",
      "company": "Goodwill",
      "description": "Goodwill is a non-profit organization that initiates community-based programs related to gainful employment. It was founded in 1902 in Boston.\n\nThe accept financial donations, as well as clothing and household items in usable condition. If you're not sure whether they can accept your donation, please give them a call beforehand.",
      "state": "Kentucky",
      "stateSlug": "kentucky",
      "city": "Lexington",
      "address": "3130 Mapleleaf Dr, Lexington, KY 40509, USA",
      "street": "3130 Mapleleaf Drive",
      "zip": "40509",
      "latitude": 38.006154,
      "longitude": -84.427688,
      "acceptedMaterials": [
        "Clothing",
        "Furniture",
        "Homewares"
      ],
      "logo": "goodwill.jpg",
      "permalink": "https://www.clothedonations.com/kentucky/goodwill-lexington-6/",
      "lastUpdated": "7/10/2024"
    },
    {
      "id": "20676",
      "title": "Goodwill - Lexington",
      "company": "Goodwill",
      "description": "Goodwill is a non-profit organization that initiates community-based programs related to gainful employment. It was founded in 1902 in Boston.\n\nThe accept financial donations, as well as clothing and household items in usable condition. If you're not sure whether they can accept your donation, please give them a call beforehand.",
      "state": "Kentucky",
      "stateSlug": "kentucky",
      "city": "Lexington",
      "address": "3640 Boston Rd, Lexington, KY 40514, USA",
      "street": "3640 Boston Road",
      "zip": "40514",
      "latitude": 37.980524,
      "longitude": -84.550679,
      "acceptedMaterials": [
        "Clothing",
        "Furniture",
        "Homewares"
      ],
      "logo": "goodwill.jpg",
      "permalink": "https://www.clothedonations.com/kentucky/goodwill-lexington-7/",
      "lastUpdated": "7/10/2024"
    },
    {
      "id": "20677",
      "title": "Goodwill - Lexington",
      "company": "Goodwill",
      "description": "Goodwill is a non-profit organization that initiates community-based programs related to gainful employment. It was founded in 1902 in Boston.\n\nThe accept financial donations, as well as clothing and household items in usable condition. If you're not sure whether they can accept your donation, please give them a call beforehand.",
      "state": "Kentucky",
      "stateSlug": "kentucky",
      "city": "Lexington",
      "address": "4740 Hartland Pkwy, Lexington, KY 40515, USA",
      "street": "4740 Hartland Parkway",
      "zip": "40517",
      "latitude": 37.961242,
      "longitude": -84.480384,
      "acceptedMaterials": [
        "Clothing",
        "Furniture",
        "Homewares"
      ],
      "logo": "goodwill.jpg",
      "permalink": "https://www.clothedonations.com/kentucky/goodwill-lexington-8/",
      "lastUpdated": "7/10/2024"
    },
    {
      "id": "20708",
      "title": "Goodwill - London",
      "company": "Goodwill",
      "description": "Goodwill is a non-profit organization that initiates community-based programs related to gainful employment. It was founded in 1902 in Boston.\n\nThe accept financial donations, as well as clothing and household items in usable condition. If you're not sure whether they can accept your donation, please give them a call beforehand.",
      "state": "Kentucky",
      "stateSlug": "kentucky",
      "city": "Unknown",
      "address": "829 S Main St, London, KY 40741, USA",
      "street": "829 South Main Street",
      "zip": "40741",
      "latitude": 37.122308,
      "longitude": -84.080262,
      "acceptedMaterials": [
        "Clothing",
        "Furniture",
        "Homewares"
      ],
      "logo": "goodwill.jpg",
      "permalink": "https://www.clothedonations.com/kentucky/goodwill-london/",
      "lastUpdated": "7/10/2024"
    },
    {
      "id": "20726",
      "title": "Goodwill - Louisville",
      "company": "Goodwill",
      "description": "Goodwill is a non-profit organization that initiates community-based programs related to gainful employment. It was founded in 1902 in Boston.\n\nThe accept financial donations, as well as clothing and household items in usable condition. If you're not sure whether they can accept your donation, please give them a call beforehand.",
      "state": "Kentucky",
      "stateSlug": "kentucky",
      "city": "Unknown",
      "address": "100 Huntington Ridge Dr, Louisville, KY 40223, USA",
      "street": "",
      "zip": "",
      "latitude": 38.241315,
      "longitude": -85.507037,
      "acceptedMaterials": [
        "Clothing",
        "Furniture",
        "Homewares"
      ],
      "logo": "goodwill.jpg",
      "permalink": "https://www.clothedonations.com/kentucky/goodwill-louisville/",
      "lastUpdated": "7/10/2024"
    },
    {
      "id": "20727",
      "title": "Goodwill - Louisville",
      "company": "Goodwill",
      "description": "Goodwill is a non-profit organization that initiates community-based programs related to gainful employment. It was founded in 1902 in Boston.\n\nThe accept financial donations, as well as clothing and household items in usable condition. If you're not sure whether they can accept your donation, please give them a call beforehand.",
      "state": "Kentucky",
      "stateSlug": "kentucky",
      "city": "Louisville",
      "address": "12616 Taylorsville Rd, Louisville, KY 40299, USA",
      "street": "12616 Taylorsville Road",
      "zip": "40299",
      "latitude": 38.187377,
      "longitude": -85.517167,
      "acceptedMaterials": [
        "Clothing",
        "Furniture",
        "Homewares"
      ],
      "logo": "goodwill.jpg",
      "permalink": "https://www.clothedonations.com/kentucky/goodwill-louisville-2/",
      "lastUpdated": "7/10/2024"
    },
    {
      "id": "20728",
      "title": "Goodwill - Louisville",
      "company": "Goodwill",
      "description": "Goodwill is a non-profit organization that initiates community-based programs related to gainful employment. It was founded in 1902 in Boston.\n\nThe accept financial donations, as well as clothing and household items in usable condition. If you're not sure whether they can accept your donation, please give them a call beforehand.",
      "state": "Kentucky",
      "stateSlug": "kentucky",
      "city": "Louisville",
      "address": "133 S Hurstbourne Pkwy, Louisville, KY 40222, USA",
      "street": "133 South Hurstbourne Parkway",
      "zip": "40222",
      "latitude": 38.244173,
      "longitude": -85.576044,
      "acceptedMaterials": [
        "Clothing",
        "Furniture",
        "Homewares"
      ],
      "logo": "goodwill.jpg",
      "permalink": "https://www.clothedonations.com/kentucky/goodwill-louisville-3/",
      "lastUpdated": "7/10/2024"
    },
    {
      "id": "20729",
      "title": "Goodwill - Louisville",
      "company": "Goodwill",
      "description": "Goodwill is a non-profit organization that initiates community-based programs related to gainful employment. It was founded in 1902 in Boston.\n\nThe accept financial donations, as well as clothing and household items in usable condition. If you're not sure whether they can accept your donation, please give them a call beforehand.",
      "state": "Kentucky",
      "stateSlug": "kentucky",
      "city": "Unknown",
      "address": "4000 McCollum Ct, Louisville, KY 40218, USA",
      "street": "",
      "zip": "",
      "latitude": 38.193838,
      "longitude": -85.664467,
      "acceptedMaterials": [
        "Clothing",
        "Furniture",
        "Homewares"
      ],
      "logo": "goodwill.jpg",
      "permalink": "https://www.clothedonations.com/kentucky/goodwill-louisville-4/",
      "lastUpdated": "7/10/2024"
    },
    {
      "id": "20730",
      "title": "Goodwill - Louisville",
      "company": "Goodwill",
      "description": "Goodwill is a non-profit organization that initiates community-based programs related to gainful employment. It was founded in 1902 in Boston.\n\nThe accept financial donations, as well as clothing and household items in usable condition. If you're not sure whether they can accept your donation, please give them a call beforehand.",
      "state": "Kentucky",
      "stateSlug": "kentucky",
      "city": "Louisville",
      "address": "4109 Taylorsville Rd, Louisville, KY 40220, USA",
      "street": "4109 Taylorsville Road",
      "zip": "40220",
      "latitude": 38.220327,
      "longitude": -85.619588,
      "acceptedMaterials": [
        "Clothing",
        "Furniture",
        "Homewares"
      ],
      "logo": "goodwill.jpg",
      "permalink": "https://www.clothedonations.com/kentucky/goodwill-louisville-5/",
      "lastUpdated": "7/10/2024"
    },
    {
      "id": "20731",
      "title": "Goodwill - Louisville",
      "company": "Goodwill",
      "description": "Goodwill is a non-profit organization that initiates community-based programs related to gainful employment. It was founded in 1902 in Boston.\n\nThe accept financial donations, as well as clothing and household items in usable condition. If you're not sure whether they can accept your donation, please give them a call beforehand.",
      "state": "Kentucky",
      "stateSlug": "kentucky",
      "city": "Louisville",
      "address": "4224 Shelbyville Rd, Louisville, KY 40207, USA",
      "street": "Shelbyville Road",
      "zip": "40207",
      "latitude": 38.251191,
      "longitude": -85.638389,
      "acceptedMaterials": [
        "Clothing",
        "Furniture",
        "Homewares"
      ],
      "logo": "goodwill.jpg",
      "permalink": "https://www.clothedonations.com/kentucky/goodwill-louisville-6/",
      "lastUpdated": "7/10/2024"
    },
    {
      "id": "20732",
      "title": "Goodwill - Louisville",
      "company": "Goodwill",
      "description": "Goodwill is a non-profit organization that initiates community-based programs related to gainful employment. It was founded in 1902 in Boston.\n\nThe accept financial donations, as well as clothing and household items in usable condition. If you're not sure whether they can accept your donation, please give them a call beforehand.",
      "state": "Kentucky",
      "stateSlug": "kentucky",
      "city": "Louisville",
      "address": "4840 Dixie Hwy, Louisville, KY 40216, USA",
      "street": "4840 Dixie Highway",
      "zip": "40216",
      "latitude": 38.171579,
      "longitude": -85.826586,
      "acceptedMaterials": [
        "Clothing",
        "Furniture",
        "Homewares"
      ],
      "logo": "goodwill.jpg",
      "permalink": "https://www.clothedonations.com/kentucky/goodwill-louisville-7/",
      "lastUpdated": "7/10/2024"
    },
    {
      "id": "20733",
      "title": "Goodwill - Louisville",
      "company": "Goodwill",
      "description": "Goodwill is a non-profit organization that initiates community-based programs related to gainful employment. It was founded in 1902 in Boston.\n\nThe accept financial donations, as well as clothing and household items in usable condition. If you're not sure whether they can accept your donation, please give them a call beforehand.",
      "state": "Kentucky",
      "stateSlug": "kentucky",
      "city": "Louisville",
      "address": "4950 US-42, Louisville, KY 40222, USA",
      "street": "US 42",
      "zip": "40059",
      "latitude": 38.285578,
      "longitude": -85.630881,
      "acceptedMaterials": [
        "Clothing",
        "Furniture",
        "Homewares"
      ],
      "logo": "goodwill.jpg",
      "permalink": "https://www.clothedonations.com/kentucky/goodwill-louisville-8/",
      "lastUpdated": "7/10/2024"
    },
    {
      "id": "20734",
      "title": "Goodwill - Louisville",
      "company": "Goodwill",
      "description": "Goodwill is a non-profit organization that initiates community-based programs related to gainful employment. It was founded in 1902 in Boston.\n\nThe accept financial donations, as well as clothing and household items in usable condition. If you're not sure whether they can accept your donation, please give them a call beforehand.",
      "state": "Kentucky",
      "stateSlug": "kentucky",
      "city": "Louisville",
      "address": "5117 Antle Dr, Louisville, KY 40229, USA",
      "street": "5117 Antle Drive",
      "zip": "40229",
      "latitude": 38.087922,
      "longitude": -85.669061,
      "acceptedMaterials": [
        "Clothing",
        "Furniture",
        "Homewares"
      ],
      "logo": "goodwill.jpg",
      "permalink": "https://www.clothedonations.com/kentucky/goodwill-louisville-9/",
      "lastUpdated": "7/10/2024"
    },
    {
      "id": "20735",
      "title": "Goodwill - Louisville",
      "company": "Goodwill",
      "description": "Goodwill is a non-profit organization that initiates community-based programs related to gainful employment. It was founded in 1902 in Boston.\n\nThe accept financial donations, as well as clothing and household items in usable condition. If you're not sure whether they can accept your donation, please give them a call beforehand.",
      "state": "Kentucky",
      "stateSlug": "kentucky",
      "city": "Louisville",
      "address": "5230 Bardstown Rd, Louisville, KY 40291, USA",
      "street": "5230 Bardstown Road",
      "zip": "40291",
      "latitude": 38.169527,
      "longitude": -85.607166,
      "acceptedMaterials": [
        "Clothing",
        "Furniture",
        "Homewares"
      ],
      "logo": "goodwill.jpg",
      "permalink": "https://www.clothedonations.com/kentucky/goodwill-louisville-10/",
      "lastUpdated": "7/10/2024"
    },
    {
      "id": "20736",
      "title": "Goodwill - Louisville",
      "company": "Goodwill",
      "description": "Goodwill is a non-profit organization that initiates community-based programs related to gainful employment. It was founded in 1902 in Boston.\n\nThe accept financial donations, as well as clothing and household items in usable condition. If you're not sure whether they can accept your donation, please give them a call beforehand.",
      "state": "Kentucky",
      "stateSlug": "kentucky",
      "city": "Louisville",
      "address": "5601 Outer Loop, Louisville, KY 40219, USA",
      "street": "5601 Outer Loop",
      "zip": "40219",
      "latitude": 38.139588,
      "longitude": -85.656998,
      "acceptedMaterials": [
        "Clothing",
        "Furniture",
        "Homewares"
      ],
      "logo": "goodwill.jpg",
      "permalink": "https://www.clothedonations.com/kentucky/goodwill-louisville-11/",
      "lastUpdated": "7/10/2024"
    },
    {
      "id": "20737",
      "title": "Goodwill - Louisville",
      "company": "Goodwill",
      "description": "Goodwill is a non-profit organization that initiates community-based programs related to gainful employment. It was founded in 1902 in Boston.\n\nThe accept financial donations, as well as clothing and household items in usable condition. If you're not sure whether they can accept your donation, please give them a call beforehand.",
      "state": "Kentucky",
      "stateSlug": "kentucky",
      "city": "Louisville",
      "address": "909 E Broadway, Louisville, KY 40204, USA",
      "street": "909 East Broadway",
      "zip": "40204",
      "latitude": 38.24489,
      "longitude": -85.736939,
      "acceptedMaterials": [
        "Clothing",
        "Furniture",
        "Homewares"
      ],
      "logo": "goodwill.jpg",
      "permalink": "https://www.clothedonations.com/kentucky/goodwill-louisville-12/",
      "lastUpdated": "7/10/2024"
    },
    {
      "id": "20738",
      "title": "Goodwill - Louisville",
      "company": "Goodwill",
      "description": "Goodwill is a non-profit organization that initiates community-based programs related to gainful employment. It was founded in 1902 in Boston.\n\nThe accept financial donations, as well as clothing and household items in usable condition. If you're not sure whether they can accept your donation, please give them a call beforehand.",
      "state": "Kentucky",
      "stateSlug": "kentucky",
      "city": "Louisville",
      "address": "909 E Broadway, Louisville, KY 40204, USA",
      "street": "909 East Broadway",
      "zip": "40204",
      "latitude": 38.24489,
      "longitude": -85.736939,
      "acceptedMaterials": [
        "Clothing",
        "Furniture",
        "Homewares"
      ],
      "logo": "goodwill.jpg",
      "permalink": "https://www.clothedonations.com/kentucky/goodwill-louisville-13/",
      "lastUpdated": "7/10/2024"
    },
    {
      "id": "20739",
      "title": "Goodwill - Louisville",
      "company": "Goodwill",
      "description": "Goodwill is a non-profit organization that initiates community-based programs related to gainful employment. It was founded in 1902 in Boston.\n\nThe accept financial donations, as well as clothing and household items in usable condition. If you're not sure whether they can accept your donation, please give them a call beforehand.",
      "state": "Kentucky",
      "stateSlug": "kentucky",
      "city": "Louisville",
      "address": "962 E Chestnut St, Louisville, KY 40204, USA",
      "street": "962 East Chestnut Street",
      "zip": "40204",
      "latitude": 38.247093,
      "longitude": -85.734233,
      "acceptedMaterials": [
        "Clothing",
        "Furniture",
        "Homewares"
      ],
      "logo": "goodwill.jpg",
      "permalink": "https://www.clothedonations.com/kentucky/goodwill-louisville-14/",
      "lastUpdated": "7/10/2024"
    },
    {
      "id": "20801",
      "title": "Goodwill - Mayfield",
      "company": "Goodwill",
      "description": "Goodwill is a non-profit organization that initiates community-based programs related to gainful employment. It was founded in 1902 in Boston.\n\nThe accept financial donations, as well as clothing and household items in usable condition. If you're not sure whether they can accept your donation, please give them a call beforehand.",
      "state": "Kentucky",
      "stateSlug": "kentucky",
      "city": "Unknown",
      "address": "1235 Paris Rd, Mayfield, KY 42066, USA",
      "street": "1235 Paris Road",
      "zip": "42066",
      "latitude": 36.720562,
      "longitude": -88.626887,
      "acceptedMaterials": [
        "Clothing",
        "Furniture",
        "Homewares"
      ],
      "logo": "goodwill.jpg",
      "permalink": "https://www.clothedonations.com/kentucky/goodwill-mayfield/",
      "lastUpdated": "7/10/2024"
    },
    {
      "id": "20805",
      "title": "Goodwill - Maysville",
      "company": "Goodwill",
      "description": "Goodwill is a non-profit organization that initiates community-based programs related to gainful employment. It was founded in 1902 in Boston.\n\nThe accept financial donations, as well as clothing and household items in usable condition. If you're not sure whether they can accept your donation, please give them a call beforehand.",
      "state": "Kentucky",
      "stateSlug": "kentucky",
      "city": "Unknown",
      "address": "505 Market Place Drive, Maysville, KY 41056, USA",
      "street": "",
      "zip": "",
      "latitude": 38.628977,
      "longitude": -83.79327,
      "acceptedMaterials": [
        "Clothing",
        "Furniture",
        "Homewares"
      ],
      "logo": "goodwill.jpg",
      "permalink": "https://www.clothedonations.com/kentucky/goodwill-maysville/",
      "lastUpdated": "7/10/2024"
    },
    {
      "id": "20884",
      "title": "Goodwill - Middlesboro",
      "company": "Goodwill",
      "description": "Goodwill is a non-profit organization that initiates community-based programs related to gainful employment. It was founded in 1902 in Boston.\n\nThe accept financial donations, as well as clothing and household items in usable condition. If you're not sure whether they can accept your donation, please give them a call beforehand.",
      "state": "Kentucky",
      "stateSlug": "kentucky",
      "city": "Unknown",
      "address": "710 N 12th St, Middlesboro, KY 40965, USA",
      "street": "North 12th Street",
      "zip": "40864",
      "latitude": 36.61303,
      "longitude": -83.70203,
      "acceptedMaterials": [
        "Clothing",
        "Furniture",
        "Homewares"
      ],
      "logo": "goodwill.jpg",
      "permalink": "https://www.clothedonations.com/kentucky/goodwill-middlesboro/",
      "lastUpdated": "7/10/2024"
    },
    {
      "id": "20956",
      "title": "Goodwill - Morehead",
      "company": "Goodwill",
      "description": "Goodwill is a non-profit organization that initiates community-based programs related to gainful employment. It was founded in 1902 in Boston.\n\nThe accept financial donations, as well as clothing and household items in usable condition. If you're not sure whether they can accept your donation, please give them a call beforehand.",
      "state": "Kentucky",
      "stateSlug": "kentucky",
      "city": "Unknown",
      "address": "206 Kroger Center Dr, Morehead, KY 40351, USA",
      "street": "Kroger Center Drive",
      "zip": "40351",
      "latitude": 38.194252,
      "longitude": -83.483144,
      "acceptedMaterials": [
        "Clothing",
        "Furniture",
        "Homewares"
      ],
      "logo": "goodwill.jpg",
      "permalink": "https://www.clothedonations.com/kentucky/goodwill-morehead/",
      "lastUpdated": "7/10/2024"
    },
    {
      "id": "20957",
      "title": "Goodwill - Morehead",
      "company": "Goodwill",
      "description": "Goodwill is a non-profit organization that initiates community-based programs related to gainful employment. It was founded in 1902 in Boston.\n\nThe accept financial donations, as well as clothing and household items in usable condition. If you're not sure whether they can accept your donation, please give them a call beforehand.",
      "state": "Kentucky",
      "stateSlug": "kentucky",
      "city": "Unknown",
      "address": "206 Kroger Center Dr, Morehead, KY 40351, USA",
      "street": "Kroger Center Drive",
      "zip": "40351",
      "latitude": 38.194252,
      "longitude": -83.483144,
      "acceptedMaterials": [
        "Clothing",
        "Furniture",
        "Homewares"
      ],
      "logo": "goodwill.jpg",
      "permalink": "https://www.clothedonations.com/kentucky/goodwill-morehead-2/",
      "lastUpdated": "7/10/2024"
    },
    {
      "id": "20973",
      "title": "Goodwill - Mt Sterling",
      "company": "Goodwill",
      "description": "Goodwill is a non-profit organization that initiates community-based programs related to gainful employment. It was founded in 1902 in Boston.\n\nThe accept financial donations, as well as clothing and household items in usable condition. If you're not sure whether they can accept your donation, please give them a call beforehand.",
      "state": "Kentucky",
      "stateSlug": "kentucky",
      "city": "Unknown",
      "address": "900 Indian Mound Dr, Mt Sterling, KY 40353, USA",
      "street": "Indian Mound Drive",
      "zip": "40353",
      "latitude": 38.05881,
      "longitude": -83.955159,
      "acceptedMaterials": [
        "Clothing",
        "Furniture",
        "Homewares"
      ],
      "logo": "goodwill.jpg",
      "permalink": "https://www.clothedonations.com/kentucky/goodwill-mt-sterling/",
      "lastUpdated": "7/10/2024"
    },
    {
      "id": "20975",
      "title": "Goodwill - Mt Washington",
      "company": "Goodwill",
      "description": "Goodwill is a non-profit organization that initiates community-based programs related to gainful employment. It was founded in 1902 in Boston.\n\nThe accept financial donations, as well as clothing and household items in usable condition. If you're not sure whether they can accept your donation, please give them a call beforehand.",
      "state": "Kentucky",
      "stateSlug": "kentucky",
      "city": "Unknown",
      "address": "337 Oakbrooke Dr #700, Mt Washington, KY 40047, USA",
      "street": "",
      "zip": "",
      "latitude": 38.054127,
      "longitude": -85.539377,
      "acceptedMaterials": [
        "Clothing",
        "Furniture",
        "Homewares"
      ],
      "logo": "goodwill.jpg",
      "permalink": "https://www.clothedonations.com/kentucky/goodwill-mt-washington/",
      "lastUpdated": "7/10/2024"
    },
    {
      "id": "20990",
      "title": "Goodwill - Murray",
      "company": "Goodwill",
      "description": "Goodwill is a non-profit organization that initiates community-based programs related to gainful employment. It was founded in 1902 in Boston.\n\nThe accept financial donations, as well as clothing and household items in usable condition. If you're not sure whether they can accept your donation, please give them a call beforehand.",
      "state": "Kentucky",
      "stateSlug": "kentucky",
      "city": "Unknown",
      "address": "1208 N 12th St, Murray, KY 42071, USA",
      "street": "1208 North 12th Street",
      "zip": "42071",
      "latitude": 36.628571,
      "longitude": -88.312579,
      "acceptedMaterials": [
        "Clothing",
        "Furniture",
        "Homewares"
      ],
      "logo": "goodwill.jpg",
      "permalink": "https://www.clothedonations.com/kentucky/goodwill-murray/",
      "lastUpdated": "7/10/2024"
    },
    {
      "id": "21070",
      "title": "Goodwill - Nicholasville",
      "company": "Goodwill",
      "description": "Goodwill is a non-profit organization that initiates community-based programs related to gainful employment. It was founded in 1902 in Boston.\n\nThe accept financial donations, as well as clothing and household items in usable condition. If you're not sure whether they can accept your donation, please give them a call beforehand.",
      "state": "Kentucky",
      "stateSlug": "kentucky",
      "city": "Unknown",
      "address": "1051 N Main St, Nicholasville, KY 40356, USA",
      "street": "1051 North Main Street",
      "zip": "40356",
      "latitude": 37.901622,
      "longitude": -84.564556,
      "acceptedMaterials": [
        "Clothing",
        "Furniture",
        "Homewares"
      ],
      "logo": "goodwill.jpg",
      "permalink": "https://www.clothedonations.com/kentucky/goodwill-nicholasville/",
      "lastUpdated": "7/10/2024"
    },
    {
      "id": "21071",
      "title": "Goodwill - Nicholasville",
      "company": "Goodwill",
      "description": "Goodwill is a non-profit organization that initiates community-based programs related to gainful employment. It was founded in 1902 in Boston.\n\nThe accept financial donations, as well as clothing and household items in usable condition. If you're not sure whether they can accept your donation, please give them a call beforehand.",
      "state": "Kentucky",
      "stateSlug": "kentucky",
      "city": "Unknown",
      "address": "112 Bellerive Blvd #3, Nicholasville, KY 40356, USA",
      "street": "",
      "zip": "",
      "latitude": 37.98495,
      "longitude": -84.591196,
      "acceptedMaterials": [
        "Clothing",
        "Furniture",
        "Homewares"
      ],
      "logo": "goodwill.jpg",
      "permalink": "https://www.clothedonations.com/kentucky/goodwill-nicholasville-2/",
      "lastUpdated": "7/10/2024"
    },
    {
      "id": "21073",
      "title": "Goodwill - Nicholasville",
      "company": "Goodwill",
      "description": "Goodwill is a non-profit organization that initiates community-based programs related to gainful employment. It was founded in 1902 in Boston.\n\nThe accept financial donations, as well as clothing and household items in usable condition. If you're not sure whether they can accept your donation, please give them a call beforehand.",
      "state": "Kentucky",
      "stateSlug": "kentucky",
      "city": "Unknown",
      "address": "301 E Brannon Rd, Nicholasville, KY 40356, USA",
      "street": "East Brannon Road",
      "zip": "40514",
      "latitude": 37.956338,
      "longitude": -84.533605,
      "acceptedMaterials": [
        "Clothing",
        "Furniture",
        "Homewares"
      ],
      "logo": "goodwill.jpg",
      "permalink": "https://www.clothedonations.com/kentucky/goodwill-nicholasville-3/",
      "lastUpdated": "7/10/2024"
    },
    {
      "id": "21200",
      "title": "Goodwill - Paducah",
      "company": "Goodwill",
      "description": "Goodwill is a non-profit organization that initiates community-based programs related to gainful employment. It was founded in 1902 in Boston.\n\nThe accept financial donations, as well as clothing and household items in usable condition. If you're not sure whether they can accept your donation, please give them a call beforehand.",
      "state": "Kentucky",
      "stateSlug": "kentucky",
      "city": "Paducah",
      "address": "2560 Lone Oak Rd, Paducah, KY 42003, USA",
      "street": "2560 Lone Oak Road",
      "zip": "42003",
      "latitude": 37.041747,
      "longitude": -88.658386,
      "acceptedMaterials": [
        "Clothing",
        "Furniture",
        "Homewares"
      ],
      "logo": "goodwill.jpg",
      "permalink": "https://www.clothedonations.com/kentucky/goodwill-paducah/",
      "lastUpdated": "7/10/2024"
    },
    {
      "id": "21201",
      "title": "Goodwill - Paducah",
      "company": "Goodwill",
      "description": "Goodwill is a non-profit organization that initiates community-based programs related to gainful employment. It was founded in 1902 in Boston.\n\nThe accept financial donations, as well as clothing and household items in usable condition. If you're not sure whether they can accept your donation, please give them a call beforehand.",
      "state": "Kentucky",
      "stateSlug": "kentucky",
      "city": "Paducah",
      "address": "2560 Lone Oak Rd, Paducah, KY 42003, USA",
      "street": "2560 Lone Oak Road",
      "zip": "42003",
      "latitude": 37.041747,
      "longitude": -88.658386,
      "acceptedMaterials": [
        "Clothing",
        "Furniture",
        "Homewares"
      ],
      "logo": "goodwill.jpg",
      "permalink": "https://www.clothedonations.com/kentucky/goodwill-paducah-2/",
      "lastUpdated": "7/10/2024"
    },
    {
      "id": "21204",
      "title": "Goodwill - Paintsville",
      "company": "Goodwill",
      "description": "Goodwill is a non-profit organization that initiates community-based programs related to gainful employment. It was founded in 1902 in Boston.\n\nThe accept financial donations, as well as clothing and household items in usable condition. If you're not sure whether they can accept your donation, please give them a call beforehand.",
      "state": "Kentucky",
      "stateSlug": "kentucky",
      "city": "Unknown",
      "address": "343 S Mayo Trail, Paintsville, KY 41240, USA",
      "street": "South Mayo Trail",
      "zip": "41240",
      "latitude": 37.810414,
      "longitude": -82.803991,
      "acceptedMaterials": [
        "Clothing",
        "Furniture",
        "Homewares"
      ],
      "logo": "goodwill.jpg",
      "permalink": "https://www.clothedonations.com/kentucky/goodwill-paintsville/",
      "lastUpdated": "7/10/2024"
    },
    {
      "id": "21215",
      "title": "Goodwill - Paris",
      "company": "Goodwill",
      "description": "Goodwill is a non-profit organization that initiates community-based programs related to gainful employment. It was founded in 1902 in Boston.\n\nThe accept financial donations, as well as clothing and household items in usable condition. If you're not sure whether they can accept your donation, please give them a call beforehand.",
      "state": "Kentucky",
      "stateSlug": "kentucky",
      "city": "Unknown",
      "address": "118 Matlack St, Paris, KY 40361, USA",
      "street": "118 Matlack Street",
      "zip": "40361",
      "latitude": 38.191428,
      "longitude": -84.279191,
      "acceptedMaterials": [
        "Clothing",
        "Furniture",
        "Homewares"
      ],
      "logo": "goodwill.jpg",
      "permalink": "https://www.clothedonations.com/kentucky/goodwill-paris/",
      "lastUpdated": "7/10/2024"
    },
    {
      "id": "21261",
      "title": "Goodwill - Pikeville",
      "company": "Goodwill",
      "description": "Goodwill is a non-profit organization that initiates community-based programs related to gainful employment. It was founded in 1902 in Boston.\n\nThe accept financial donations, as well as clothing and household items in usable condition. If you're not sure whether they can accept your donation, please give them a call beforehand.",
      "state": "Kentucky",
      "stateSlug": "kentucky",
      "city": "Unknown",
      "address": "4493 N Mayo Trail, Pikeville, KY 41501, USA",
      "street": "4493 North Mayo Trail",
      "zip": "41501",
      "latitude": 37.527082,
      "longitude": -82.575532,
      "acceptedMaterials": [
        "Clothing",
        "Furniture",
        "Homewares"
      ],
      "logo": "goodwill.jpg",
      "permalink": "https://www.clothedonations.com/kentucky/goodwill-pikeville/",
      "lastUpdated": "7/10/2024"
    },
    {
      "id": "21269",
      "title": "Goodwill - Corbin",
      "company": "Goodwill",
      "description": "Goodwill is a non-profit organization that initiates community-based programs related to gainful employment. It was founded in 1902 in Boston.\n\nThe accept financial donations, as well as clothing and household items in usable condition. If you're not sure whether they can accept your donation, please give them a call beforehand.",
      "state": "Kentucky",
      "stateSlug": "kentucky",
      "city": "Unknown",
      "address": "15007 US-25E Scenic, Pineville, KY 40977, USA",
      "street": "",
      "zip": "",
      "latitude": 36.774754,
      "longitude": -83.734777,
      "acceptedMaterials": [
        "Clothing",
        "Furniture",
        "Homewares"
      ],
      "logo": "goodwill.jpg",
      "permalink": "https://www.clothedonations.com/kentucky/goodwill-corbin/",
      "lastUpdated": "7/10/2024"
    },
    {
      "id": "21324",
      "title": "Goodwill - Prestonsburg",
      "company": "Goodwill",
      "description": "Goodwill is a non-profit organization that initiates community-based programs related to gainful employment. It was founded in 1902 in Boston.\n\nThe accept financial donations, as well as clothing and household items in usable condition. If you're not sure whether they can accept your donation, please give them a call beforehand.",
      "state": "Kentucky",
      "stateSlug": "kentucky",
      "city": "Unknown",
      "address": "355 Village Dr, Prestonsburg, KY 41653, USA",
      "street": "",
      "zip": "",
      "latitude": 37.65647,
      "longitude": -82.781567,
      "acceptedMaterials": [
        "Clothing",
        "Furniture",
        "Homewares"
      ],
      "logo": "goodwill.jpg",
      "permalink": "https://www.clothedonations.com/kentucky/goodwill-prestonsburg/",
      "lastUpdated": "7/10/2024"
    },
    {
      "id": "21325",
      "title": "Goodwill - Prestonsburg",
      "company": "Goodwill",
      "description": "Goodwill is a non-profit organization that initiates community-based programs related to gainful employment. It was founded in 1902 in Boston.\n\nThe accept financial donations, as well as clothing and household items in usable condition. If you're not sure whether they can accept your donation, please give them a call beforehand.",
      "state": "Kentucky",
      "stateSlug": "kentucky",
      "city": "Unknown",
      "address": "355 Village Dr, Prestonsburg, KY 41653, USA",
      "street": "",
      "zip": "",
      "latitude": 37.65647,
      "longitude": -82.781567,
      "acceptedMaterials": [
        "Clothing",
        "Furniture",
        "Homewares"
      ],
      "logo": "goodwill.jpg",
      "permalink": "https://www.clothedonations.com/kentucky/goodwill-prestonsburg-2/",
      "lastUpdated": "7/10/2024"
    },
    {
      "id": "21329",
      "title": "Goodwill - Radcliff",
      "company": "Goodwill",
      "description": "Goodwill is a non-profit organization that initiates community-based programs related to gainful employment. It was founded in 1902 in Boston.\n\nThe accept financial donations, as well as clothing and household items in usable condition. If you're not sure whether they can accept your donation, please give them a call beforehand.",
      "state": "Kentucky",
      "stateSlug": "kentucky",
      "city": "Unknown",
      "address": "175 W Lincoln Trail Blvd, Radcliff, KY 40160, USA",
      "street": "175 West Lincoln Trail Boulevard",
      "zip": "40160",
      "latitude": 37.839247,
      "longitude": -85.941832,
      "acceptedMaterials": [
        "Clothing",
        "Furniture",
        "Homewares"
      ],
      "logo": "goodwill.jpg",
      "permalink": "https://www.clothedonations.com/kentucky/goodwill-radcliff/",
      "lastUpdated": "7/10/2024"
    },
    {
      "id": "21345",
      "title": "Goodwill - Richmond",
      "company": "Goodwill",
      "description": "Goodwill is a non-profit organization that initiates community-based programs related to gainful employment. It was founded in 1902 in Boston.\n\nThe accept financial donations, as well as clothing and household items in usable condition. If you're not sure whether they can accept your donation, please give them a call beforehand.",
      "state": "Kentucky",
      "stateSlug": "kentucky",
      "city": "Unknown",
      "address": "670 University Shopping Ctr, Richmond, KY 40475, USA",
      "street": "",
      "zip": "",
      "latitude": 37.73506,
      "longitude": -84.307998,
      "acceptedMaterials": [
        "Clothing",
        "Furniture",
        "Homewares"
      ],
      "logo": "goodwill.jpg",
      "permalink": "https://www.clothedonations.com/kentucky/goodwill-richmond-4/",
      "lastUpdated": "7/10/2024"
    },
    {
      "id": "21472",
      "title": "Goodwill - Shelbyville",
      "company": "Goodwill",
      "description": "Goodwill is a non-profit organization that initiates community-based programs related to gainful employment. It was founded in 1902 in Boston.\n\nThe accept financial donations, as well as clothing and household items in usable condition. If you're not sure whether they can accept your donation, please give them a call beforehand.",
      "state": "Kentucky",
      "stateSlug": "kentucky",
      "city": "Unknown",
      "address": "450 Boone Station Rd, Shelbyville, KY 40065, USA",
      "street": "Boone Station Road",
      "zip": "40065",
      "latitude": 38.217253,
      "longitude": -85.203085,
      "acceptedMaterials": [
        "Clothing",
        "Furniture",
        "Homewares"
      ],
      "logo": "goodwill.jpg",
      "permalink": "https://www.clothedonations.com/kentucky/goodwill-shelbyville-2/",
      "lastUpdated": "7/10/2024"
    },
    {
      "id": "21475",
      "title": "Goodwill - Shepherdsville",
      "company": "Goodwill",
      "description": "Goodwill is a non-profit organization that initiates community-based programs related to gainful employment. It was founded in 1902 in Boston.\n\nThe accept financial donations, as well as clothing and household items in usable condition. If you're not sure whether they can accept your donation, please give them a call beforehand.",
      "state": "Kentucky",
      "stateSlug": "kentucky",
      "city": "Unknown",
      "address": "513 Adam Shepherd Pkwy, Shepherdsville, KY 40165, USA",
      "street": "Adam Shepherd Parkway",
      "zip": "40165",
      "latitude": 37.995145,
      "longitude": -85.711585,
      "acceptedMaterials": [
        "Clothing",
        "Furniture",
        "Homewares"
      ],
      "logo": "goodwill.jpg",
      "permalink": "https://www.clothedonations.com/kentucky/goodwill-shepherdsville/",
      "lastUpdated": "7/10/2024"
    },
    {
      "id": "21506",
      "title": "Goodwill - Burnside",
      "company": "Goodwill",
      "description": "Goodwill is a non-profit organization that initiates community-based programs related to gainful employment. It was founded in 1902 in Boston.\n\nThe accept financial donations, as well as clothing and household items in usable condition. If you're not sure whether they can accept your donation, please give them a call beforehand.",
      "state": "Kentucky",
      "stateSlug": "kentucky",
      "city": "Unknown",
      "address": "5828 S Hwy 27, Somerset, KY 42501, USA",
      "street": "",
      "zip": "",
      "latitude": 37.020158,
      "longitude": -84.626501,
      "acceptedMaterials": [
        "Clothing",
        "Furniture",
        "Homewares"
      ],
      "logo": "goodwill.jpg",
      "permalink": "https://www.clothedonations.com/kentucky/goodwill-burnside/",
      "lastUpdated": "7/10/2024"
    },
    {
      "id": "21507",
      "title": "Goodwill - Somerset",
      "company": "Goodwill",
      "description": "Goodwill is a non-profit organization that initiates community-based programs related to gainful employment. It was founded in 1902 in Boston.\n\nThe accept financial donations, as well as clothing and household items in usable condition. If you're not sure whether they can accept your donation, please give them a call beforehand.",
      "state": "Kentucky",
      "stateSlug": "kentucky",
      "city": "Unknown",
      "address": "370 S Hwy 27 #9A, Somerset, KY 42501, USA",
      "street": "",
      "zip": "",
      "latitude": 37.09004,
      "longitude": -84.615569,
      "acceptedMaterials": [
        "Clothing",
        "Furniture",
        "Homewares"
      ],
      "logo": "goodwill.jpg",
      "permalink": "https://www.clothedonations.com/kentucky/goodwill-somerset/",
      "lastUpdated": "7/10/2024"
    },
    {
      "id": "21508",
      "title": "Goodwill - Somerset",
      "company": "Goodwill",
      "description": "Goodwill is a non-profit organization that initiates community-based programs related to gainful employment. It was founded in 1902 in Boston.\n\nThe accept financial donations, as well as clothing and household items in usable condition. If you're not sure whether they can accept your donation, please give them a call beforehand.",
      "state": "Kentucky",
      "stateSlug": "kentucky",
      "city": "Unknown",
      "address": "5830 S Hwy 27, Somerset, KY 42501, USA",
      "street": "",
      "zip": "",
      "latitude": 37.020246,
      "longitude": -84.627166,
      "acceptedMaterials": [
        "Clothing",
        "Furniture",
        "Homewares"
      ],
      "logo": "goodwill.jpg",
      "permalink": "https://www.clothedonations.com/kentucky/goodwill-somerset-2/",
      "lastUpdated": "7/10/2024"
    },
    {
      "id": "21572",
      "title": "Goodwill - Stanford",
      "company": "Goodwill",
      "description": "Goodwill is a non-profit organization that initiates community-based programs related to gainful employment. It was founded in 1902 in Boston.\n\nThe accept financial donations, as well as clothing and household items in usable condition. If you're not sure whether they can accept your donation, please give them a call beforehand.",
      "state": "Kentucky",
      "stateSlug": "kentucky",
      "city": "Unknown",
      "address": "101 US-150 #101, Stanford, KY 40484, USA",
      "street": "",
      "zip": "",
      "latitude": 37.539986,
      "longitude": -84.653785,
      "acceptedMaterials": [
        "Clothing",
        "Furniture",
        "Homewares"
      ],
      "logo": "goodwill.jpg",
      "permalink": "https://www.clothedonations.com/kentucky/goodwill-stanford/",
      "lastUpdated": "7/10/2024"
    },
    {
      "id": "21659",
      "title": "Goodwill - Versailles",
      "company": "Goodwill",
      "description": "Goodwill is a non-profit organization that initiates community-based programs related to gainful employment. It was founded in 1902 in Boston.\n\nThe accept financial donations, as well as clothing and household items in usable condition. If you're not sure whether they can accept your donation, please give them a call beforehand.",
      "state": "Kentucky",
      "stateSlug": "kentucky",
      "city": "Unknown",
      "address": "399 Kroger Way, Versailles, KY 40383, USA",
      "street": "Kroger Way",
      "zip": "40383",
      "latitude": 38.051749,
      "longitude": -84.713332,
      "acceptedMaterials": [
        "Clothing",
        "Furniture",
        "Homewares"
      ],
      "logo": "goodwill.jpg",
      "permalink": "https://www.clothedonations.com/kentucky/goodwill-versailles/",
      "lastUpdated": "7/10/2024"
    },
    {
      "id": "21771",
      "title": "Goodwill - Williamsburg",
      "company": "Goodwill",
      "description": "Goodwill is a non-profit organization that initiates community-based programs related to gainful employment. It was founded in 1902 in Boston.\n\nThe accept financial donations, as well as clothing and household items in usable condition. If you're not sure whether they can accept your donation, please give them a call beforehand.",
      "state": "Kentucky",
      "stateSlug": "kentucky",
      "city": "Unknown",
      "address": "729 KY-92, Williamsburg, KY 40769, USA",
      "street": "US 25W;KY 92",
      "zip": "40769",
      "latitude": 36.722002,
      "longitude": -84.173476,
      "acceptedMaterials": [
        "Clothing",
        "Furniture",
        "Homewares"
      ],
      "logo": "goodwill.jpg",
      "permalink": "https://www.clothedonations.com/kentucky/goodwill-williamsburg/",
      "lastUpdated": "7/10/2024"
    },
    {
      "id": "21783",
      "title": "Goodwill - Winchester",
      "company": "Goodwill",
      "description": "Goodwill is a non-profit organization that initiates community-based programs related to gainful employment. It was founded in 1902 in Boston.\n\nThe accept financial donations, as well as clothing and household items in usable condition. If you're not sure whether they can accept your donation, please give them a call beforehand.",
      "state": "Kentucky",
      "stateSlug": "kentucky",
      "city": "Unknown",
      "address": "1509 Bypass Rd, Winchester, KY 40391, USA",
      "street": "1509 Bypass Road",
      "zip": "40391",
      "latitude": 37.995929,
      "longitude": -84.216558,
      "acceptedMaterials": [
        "Clothing",
        "Furniture",
        "Homewares"
      ],
      "logo": "goodwill.jpg",
      "permalink": "https://www.clothedonations.com/kentucky/goodwill-winchester-2/",
      "lastUpdated": "7/10/2024"
    },
    {
      "id": "21901",
      "title": "St Vincent De Paul - Louisville",
      "company": "St Vincent De Paul",
      "description": "St Vincent de Paul offers material and spiritual aid to households and individuals in need. Its outreach activities extend to disaster relief, as well as visits to elder care facilities, hospitals, and prisons.\n\nDonations accepted include clothing, shoes, non-perishable food, houseware, toys, school supplies, and more. If you're not sure whether they can accept your donation, please give them a call beforehand.",
      "state": "Kentucky",
      "stateSlug": "kentucky",
      "city": "Unknown",
      "address": "10280 Shelbyville Rd, Blue Ridge Manor, KY 40223, USA",
      "street": "10280 Shelbyville Road",
      "zip": "40223",
      "latitude": 38.244843,
      "longitude": -85.563782,
      "acceptedMaterials": [
        "Clothing",
        "Homewares"
      ],
      "logo": "goodwill.jpg",
      "permalink": "https://www.clothedonations.com/kentucky/st-vincent-de-paul-louisville/",
      "lastUpdated": "7/10/2024"
    },
    {
      "id": "21958",
      "title": "St Vincent De Paul - Covington",
      "company": "St Vincent De Paul",
      "description": "St Vincent de Paul offers material and spiritual aid to households and individuals in need. Its outreach activities extend to disaster relief, as well as visits to elder care facilities, hospitals, and prisons.\n\nDonations accepted include clothing, shoes, non-perishable food, houseware, toys, school supplies, and more. If you're not sure whether they can accept your donation, please give them a call beforehand.",
      "state": "Kentucky",
      "stateSlug": "kentucky",
      "city": "Unknown",
      "address": "2655 Crescent Springs Pike, Covington, KY 41017, USA",
      "street": "",
      "zip": "",
      "latitude": 39.046348,
      "longitude": -84.583709,
      "acceptedMaterials": [
        "Clothing",
        "Homewares"
      ],
      "logo": "goodwill.jpg",
      "permalink": "https://www.clothedonations.com/kentucky/st-vincent-de-paul-covington/",
      "lastUpdated": "7/10/2024"
    },
    {
      "id": "22002",
      "title": "St Vincent De Paul - Falmouth",
      "company": "St Vincent De Paul",
      "description": "St Vincent de Paul offers material and spiritual aid to households and individuals in need. Its outreach activities extend to disaster relief, as well as visits to elder care facilities, hospitals, and prisons.\n\nDonations accepted include clothing, shoes, non-perishable food, houseware, toys, school supplies, and more. If you're not sure whether they can accept your donation, please give them a call beforehand.",
      "state": "Kentucky",
      "stateSlug": "kentucky",
      "city": "Unknown",
      "address": "518 Barkley St, Falmouth, KY 41040, USA",
      "street": "518 Barkley Street",
      "zip": "41040",
      "latitude": 38.676294,
      "longitude": -84.340257,
      "acceptedMaterials": [
        "Clothing",
        "Homewares"
      ],
      "logo": "goodwill.jpg",
      "permalink": "https://www.clothedonations.com/kentucky/st-vincent-de-paul-falmouth/",
      "lastUpdated": "7/10/2024"
    },
    {
      "id": "22005",
      "title": "St Vincent De Paul - Florence",
      "company": "St Vincent De Paul",
      "description": "St Vincent de Paul offers material and spiritual aid to households and individuals in need. Its outreach activities extend to disaster relief, as well as visits to elder care facilities, hospitals, and prisons.\n\nDonations accepted include clothing, shoes, non-perishable food, houseware, toys, school supplies, and more. If you're not sure whether they can accept your donation, please give them a call beforehand.",
      "state": "Kentucky",
      "stateSlug": "kentucky",
      "city": "Unknown",
      "address": "7110 Turfway Rd, Florence, KY 41042, USA",
      "street": "7110 Turfway Road",
      "zip": "41042",
      "latitude": 39.005864,
      "longitude": -84.620992,
      "acceptedMaterials": [
        "Clothing",
        "Homewares"
      ],
      "logo": "goodwill.jpg",
      "permalink": "https://www.clothedonations.com/kentucky/st-vincent-de-paul-florence/",
      "lastUpdated": "7/10/2024"
    },
    {
      "id": "22090",
      "title": "St Vincent De Paul - Louisville",
      "company": "St Vincent De Paul",
      "description": "St Vincent de Paul offers material and spiritual aid to households and individuals in need. Its outreach activities extend to disaster relief, as well as visits to elder care facilities, hospitals, and prisons.\n\nDonations accepted include clothing, shoes, non-perishable food, houseware, toys, school supplies, and more. If you're not sure whether they can accept your donation, please give them a call beforehand.",
      "state": "Kentucky",
      "stateSlug": "kentucky",
      "city": "Louisville",
      "address": "2217 Hikes Ln, Louisville, KY 40218, USA",
      "street": "2217 Hikes Lane",
      "zip": "40218",
      "latitude": 38.200518,
      "longitude": -85.660247,
      "acceptedMaterials": [
        "Clothing",
        "Homewares"
      ],
      "logo": "goodwill.jpg",
      "permalink": "https://www.clothedonations.com/kentucky/st-vincent-de-paul-louisville-2/",
      "lastUpdated": "7/10/2024"
    },
    {
      "id": "22091",
      "title": "St Vincent De Paul - Louisville",
      "company": "St Vincent De Paul",
      "description": "St Vincent de Paul offers material and spiritual aid to households and individuals in need. Its outreach activities extend to disaster relief, as well as visits to elder care facilities, hospitals, and prisons.\n\nDonations accepted include clothing, shoes, non-perishable food, houseware, toys, school supplies, and more. If you're not sure whether they can accept your donation, please give them a call beforehand.",
      "state": "Kentucky",
      "stateSlug": "kentucky",
      "city": "Louisville",
      "address": "248 E Market St, Louisville, KY 40202, USA",
      "street": "248 East Market Street",
      "zip": "40202",
      "latitude": 38.254077,
      "longitude": -85.748679,
      "acceptedMaterials": [
        "Clothing",
        "Homewares"
      ],
      "logo": "goodwill.jpg",
      "permalink": "https://www.clothedonations.com/kentucky/st-vincent-de-paul-louisville-3/",
      "lastUpdated": "7/10/2024"
    },
    {
      "id": "26812",
      "title": "Kosair for Kids Sam Swope Center",
      "company": "Unknown",
      "description": "Donation location - please contact for details",
      "state": "Kentucky",
      "stateSlug": "kentucky",
      "city": "Louisville",
      "address": "982 Eastern Parkway, Louisville, KY 40201",
      "street": "982 Eastern Parkway",
      "zip": "40201",
      "latitude": 38.219262,
      "longitude": -85.733479,
      "acceptedMaterials": [
        "Clothing",
        "Linen",
        "Shoes"
      ],
      "logo": "goodwill.jpg",
      "permalink": "https://www.clothedonations.com/kentucky/kosair-for-kids-sam-swope-center/",
      "lastUpdated": "5/05/2025"
    },
    {
      "id": "26813",
      "title": "LoadUp Junk Removal",
      "company": "Unknown",
      "description": "Donation location - please contact for details",
      "state": "Kentucky",
      "stateSlug": "kentucky",
      "city": "#N/A",
      "address": "Louisville, KY 40201",
      "street": "Louisville",
      "zip": "40201",
      "latitude": 38.2542376,
      "longitude": -85.759407,
      "acceptedMaterials": [
        "Clothing",
        "Linen",
        "Shoes"
      ],
      "logo": "goodwill.jpg",
      "permalink": "https://www.clothedonations.com/kentucky/loadup-junk-removal/",
      "lastUpdated": "5/05/2025"
    },
    {
      "id": "26814",
      "title": "St. Vincent de Paul Louisville",
      "company": "Unknown",
      "description": "Donation location - please contact for details",
      "state": "Kentucky",
      "stateSlug": "kentucky",
      "city": "Louisville",
      "address": "1015 S Preston St, Louisville, KY 40201",
      "street": "1015 S Preston St",
      "zip": "40201",
      "latitude": 38.2368754,
      "longitude": -85.74798022,
      "acceptedMaterials": [
        "Clothing",
        "Linen",
        "Shoes"
      ],
      "logo": "goodwill.jpg",
      "permalink": "https://www.clothedonations.com/kentucky/st.-vincent-de-paul-louisville/",
      "lastUpdated": "5/05/2025"
    },
    {
      "id": "26815",
      "title": "Salvation Army KY/TN Divisional Headquarters",
      "company": "Unknown",
      "description": "Donation location - please contact for details",
      "state": "Kentucky",
      "stateSlug": "kentucky",
      "city": "Louisville",
      "address": "216 W Chestnut St, Louisville, KY 40201",
      "street": "216 W Chestnut St",
      "zip": "40201",
      "latitude": 38.24846975,
      "longitude": -85.75548991,
      "acceptedMaterials": [
        "Clothing",
        "Linen",
        "Shoes"
      ],
      "logo": "goodwill.jpg",
      "permalink": "https://www.clothedonations.com/kentucky/salvation-army-ky/tn-divisional-headquarters/",
      "lastUpdated": "5/05/2025"
    },
    {
      "id": "26816",
      "title": "Goodwill Opportunity Center - Metro Louisville",
      "company": "Unknown",
      "description": "Donation location - please contact for details",
      "state": "Kentucky",
      "stateSlug": "kentucky",
      "city": "Louisville",
      "address": "909 E Broadway, Louisville, KY 40201",
      "street": "909 E Broadway",
      "zip": "40201",
      "latitude": 38.244884,
      "longitude": -85.736769,
      "acceptedMaterials": [
        "Clothing",
        "Linen",
        "Shoes"
      ],
      "logo": "goodwill.jpg",
      "permalink": "https://www.clothedonations.com/kentucky/goodwill-opportunity-center---metro-louisville/",
      "lastUpdated": "5/05/2025"
    },
    {
      "id": "26817",
      "title": "Goodwill",
      "company": "Unknown",
      "description": "Donation location - please contact for details",
      "state": "Kentucky",
      "stateSlug": "kentucky",
      "city": "Louisville",
      "address": "909 E Broadway, Louisville, KY 40201",
      "street": "909 E Broadway",
      "zip": "40201",
      "latitude": 38.244884,
      "longitude": -85.736769,
      "acceptedMaterials": [
        "Clothing",
        "Linen",
        "Shoes"
      ],
      "logo": "goodwill.jpg",
      "permalink": "https://www.clothedonations.com/kentucky/goodwill/",
      "lastUpdated": "5/05/2025"
    },
    {
      "id": "26818",
      "title": "Clothing Assistance Program",
      "company": "Unknown",
      "description": "Donation location - please contact for details",
      "state": "Kentucky",
      "stateSlug": "kentucky",
      "city": "1400 W Jefferson St",
      "address": "Clothing Assistance Program, 1400 W Jefferson St, Louisville, KY 40201",
      "street": "Clothing Assistance Program",
      "zip": "40201",
      "latitude": 38.2553466,
      "longitude": -85.77401032,
      "acceptedMaterials": [
        "Clothing",
        "Linen",
        "Shoes"
      ],
      "logo": "goodwill.jpg",
      "permalink": "https://www.clothedonations.com/kentucky/clothing-assistance-program/",
      "lastUpdated": "5/05/2025"
    },
    {
      "id": "26819",
      "title": "Dress For Success Louisville",
      "company": "Unknown",
      "description": "Donation location - please contact for details",
      "state": "Kentucky",
      "stateSlug": "kentucky",
      "city": "Louisville",
      "address": "2722 Crittenden Dr, Louisville, KY 40201",
      "street": "2722 Crittenden Dr",
      "zip": "40201",
      "latitude": 38.2043799,
      "longitude": -85.75121702,
      "acceptedMaterials": [
        "Clothing",
        "Linen",
        "Shoes"
      ],
      "logo": "goodwill.jpg",
      "permalink": "https://www.clothedonations.com/kentucky/dress-for-success-louisville/",
      "lastUpdated": "5/05/2025"
    },
    {
      "id": "26820",
      "title": "St. Vincent de Paul Louisville Thrift Store",
      "company": "Unknown",
      "description": "Donation location - please contact for details",
      "state": "Kentucky",
      "stateSlug": "kentucky",
      "city": "Louisville",
      "address": "10280 Shelbyville Rd, Louisville, KY 40201",
      "street": "10280 Shelbyville Rd",
      "zip": "40201",
      "latitude": 38.244822,
      "longitude": -85.563838,
      "acceptedMaterials": [
        "Clothing",
        "Linen",
        "Shoes"
      ],
      "logo": "goodwill.jpg",
      "permalink": "https://www.clothedonations.com/kentucky/st.-vincent-de-paul-louisville-thrift-store/",
      "lastUpdated": "5/05/2025"
    },
    {
      "id": "26821",
      "title": "St. Vincent de Paul Louisville Thrift Store",
      "company": "Unknown",
      "description": "Donation location - please contact for details",
      "state": "Kentucky",
      "stateSlug": "kentucky",
      "city": "Louisville",
      "address": "8633 Preston Hwy, Louisville, KY 40201",
      "street": "8633 Preston Hwy",
      "zip": "40201",
      "latitude": 38.1283395,
      "longitude": -85.6796746,
      "acceptedMaterials": [
        "Clothing",
        "Linen",
        "Shoes"
      ],
      "logo": "goodwill.jpg",
      "permalink": "https://www.clothedonations.com/kentucky/st.-vincent-de-paul-louisville-thrift-store/",
      "lastUpdated": "5/05/2025"
    },
    {
      "id": "26822",
      "title": "St. Vincent de Paul Louisville Thrift Store",
      "company": "Unknown",
      "description": "Donation location - please contact for details",
      "state": "Kentucky",
      "stateSlug": "kentucky",
      "city": "Louisville",
      "address": "2217 Hikes Ln, Louisville, KY 40201",
      "street": "2217 Hikes Ln",
      "zip": "40201",
      "latitude": 38.2005348,
      "longitude": -85.6603211,
      "acceptedMaterials": [
        "Clothing",
        "Linen",
        "Shoes"
      ],
      "logo": "goodwill.jpg",
      "permalink": "https://www.clothedonations.com/kentucky/st.-vincent-de-paul-louisville-thrift-store/",
      "lastUpdated": "5/05/2025"
    },
    {
      "id": "26823",
      "title": "Nearly New Shop",
      "company": "Unknown",
      "description": "Donation location - please contact for details",
      "state": "Kentucky",
      "stateSlug": "kentucky",
      "city": "Louisville",
      "address": "1250 Bardstown Rd Suite 24, Louisville, KY 40201",
      "street": "1250 Bardstown Rd Suite 24",
      "zip": "40201",
      "latitude": 38.234783,
      "longitude": -85.71769136,
      "acceptedMaterials": [
        "Clothing",
        "Linen",
        "Shoes"
      ],
      "logo": "goodwill.jpg",
      "permalink": "https://www.clothedonations.com/kentucky/nearly-new-shop/",
      "lastUpdated": "5/05/2025"
    },
    {
      "id": "26824",
      "title": "Ronald McDonald House",
      "company": "Unknown",
      "description": "Donation location - please contact for details",
      "state": "Kentucky",
      "stateSlug": "kentucky",
      "city": "Louisville",
      "address": "550 S 1st St, Louisville, KY 40201",
      "street": "550 S 1st St",
      "zip": "40201",
      "latitude": 38.248977,
      "longitude": -85.753073,
      "acceptedMaterials": [
        "Clothing",
        "Linen",
        "Shoes"
      ],
      "logo": "goodwill.jpg",
      "permalink": "https://www.clothedonations.com/kentucky/ronald-mcdonald-house/",
      "lastUpdated": "5/05/2025"
    },
    {
      "id": "26825",
      "title": "Goodwill Attended Donation Center",
      "company": "Unknown",
      "description": "Donation location - please contact for details",
      "state": "Kentucky",
      "stateSlug": "kentucky",
      "city": "Louisville",
      "address": "2338 Lexington Rd, Louisville, KY 40201",
      "street": "2338 Lexington Rd",
      "zip": "40201",
      "latitude": 38.24520855,
      "longitude": -85.70287797,
      "acceptedMaterials": [
        "Clothing",
        "Linen",
        "Shoes"
      ],
      "logo": "goodwill.jpg",
      "permalink": "https://www.clothedonations.com/kentucky/goodwill-attended-donation-center/",
      "lastUpdated": "5/05/2025"
    },
    {
      "id": "26826",
      "title": "Goodwill",
      "company": "Unknown",
      "description": "Donation location - please contact for details",
      "state": "Kentucky",
      "stateSlug": "kentucky",
      "city": "Louisville",
      "address": "4425 Shelbyville Rd, Louisville, KY 40201",
      "street": "4425 Shelbyville Rd",
      "zip": "40201",
      "latitude": 38.251554,
      "longitude": -85.634097,
      "acceptedMaterials": [
        "Clothing",
        "Linen",
        "Shoes"
      ],
      "logo": "goodwill.jpg",
      "permalink": "https://www.clothedonations.com/kentucky/goodwill/",
      "lastUpdated": "5/05/2025"
    },
    {
      "id": "26827",
      "title": "Wayside Christian Mission",
      "company": "Unknown",
      "description": "Donation location - please contact for details",
      "state": "Kentucky",
      "stateSlug": "kentucky",
      "city": "Louisville",
      "address": "432 E Jefferson St, Louisville, KY 40201",
      "street": "432 E Jefferson St",
      "zip": "40201",
      "latitude": 38.25214745,
      "longitude": -85.74495511,
      "acceptedMaterials": [
        "Clothing",
        "Linen",
        "Shoes"
      ],
      "logo": "goodwill.jpg",
      "permalink": "https://www.clothedonations.com/kentucky/wayside-christian-mission/",
      "lastUpdated": "5/05/2025"
    },
    {
      "id": "26828",
      "title": "St. Vincent de Paul Louisville Donation Center",
      "company": "Unknown",
      "description": "Donation location - please contact for details",
      "state": "Kentucky",
      "stateSlug": "kentucky",
      "city": "Louisville",
      "address": "10290 Shelbyville Rd, Louisville, KY 40201",
      "street": "10290 Shelbyville Rd",
      "zip": "40201",
      "latitude": 38.244539,
      "longitude": -85.563574,
      "acceptedMaterials": [
        "Clothing",
        "Linen",
        "Shoes"
      ],
      "logo": "goodwill.jpg",
      "permalink": "https://www.clothedonations.com/kentucky/st.-vincent-de-paul-louisville-donation-center/",
      "lastUpdated": "5/05/2025"
    },
    {
      "id": "26829",
      "title": "UP for Women and Children",
      "company": "Unknown",
      "description": "Donation location - please contact for details",
      "state": "Kentucky",
      "stateSlug": "kentucky",
      "city": "Louisville",
      "address": "425 S 2nd St Suite 100, Louisville, KY 40201",
      "street": "425 S 2nd St Suite 100",
      "zip": "40201",
      "latitude": 38.2517292,
      "longitude": -85.7537839,
      "acceptedMaterials": [
        "Clothing",
        "Linen",
        "Shoes"
      ],
      "logo": "goodwill.jpg",
      "permalink": "https://www.clothedonations.com/kentucky/up-for-women-and-children/",
      "lastUpdated": "5/05/2025"
    },
    {
      "id": "26830",
      "title": "Clothes Mentor Louisville, KY (St. Matthews)",
      "company": "Unknown",
      "description": "Donation location - please contact for details",
      "state": "Kentucky",
      "stateSlug": "kentucky",
      "city": "Louisville",
      "address": "291 N Hubbards Ln, Louisville, KY 40201",
      "street": "291 N Hubbards Ln",
      "zip": "40201",
      "latitude": 38.258044,
      "longitude": -85.638234,
      "acceptedMaterials": [
        "Clothing",
        "Linen",
        "Shoes"
      ],
      "logo": "goodwill.jpg",
      "permalink": "https://www.clothedonations.com/kentucky/clothes-mentor-louisville,-ky-(st.-matthews)/",
      "lastUpdated": "5/05/2025"
    },
    {
      "id": "26831",
      "title": "LOUISVILLE THRIFT STORE",
      "company": "Unknown",
      "description": "Donation location - please contact for details",
      "state": "Kentucky",
      "stateSlug": "kentucky",
      "city": "Louisville",
      "address": "331 N 19th St, Louisville, KY 40201",
      "street": "331 N 19th St",
      "zip": "40201",
      "latitude": 38.2631602,
      "longitude": -85.7804493,
      "acceptedMaterials": [
        "Clothing",
        "Linen",
        "Shoes"
      ],
      "logo": "goodwill.jpg",
      "permalink": "https://www.clothedonations.com/kentucky/louisville-thrift-store/",
      "lastUpdated": "5/05/2025"
    },
    {
      "id": "26832",
      "title": "Golden Arrow",
      "company": "Unknown",
      "description": "Donation location - please contact for details",
      "state": "Kentucky",
      "stateSlug": "kentucky",
      "city": "Louisville",
      "address": "835 E Gray St, Louisville, KY 40202",
      "street": "835 E Gray St",
      "zip": "40202",
      "latitude": 38.24585084,
      "longitude": -85.73854769,
      "acceptedMaterials": [
        "Clothing",
        "Linen",
        "Shoes"
      ],
      "logo": "goodwill.jpg",
      "permalink": "https://www.clothedonations.com/kentucky/golden-arrow/",
      "lastUpdated": "5/05/2025"
    },
    {
      "id": "26833",
      "title": "Catholic Charities of Louisville",
      "company": "Unknown",
      "description": "Donation location - please contact for details",
      "state": "Kentucky",
      "stateSlug": "kentucky",
      "city": "Louisville",
      "address": "435 E Broadway, Louisville, KY 40202",
      "street": "435 E Broadway",
      "zip": "40202",
      "latitude": 38.24549065,
      "longitude": -85.74611681,
      "acceptedMaterials": [
        "Clothing",
        "Linen",
        "Shoes"
      ],
      "logo": "goodwill.jpg",
      "permalink": "https://www.clothedonations.com/kentucky/catholic-charities-of-louisville/",
      "lastUpdated": "5/05/2025"
    },
    {
      "id": "26834",
      "title": "The Umbrella Stand",
      "company": "Unknown",
      "description": "Donation location - please contact for details",
      "state": "Kentucky",
      "stateSlug": "kentucky",
      "city": "Louisville",
      "address": "637 Baxter Ave, Louisville, KY 40202",
      "street": "637 Baxter Ave",
      "zip": "40202",
      "latitude": 38.2453016,
      "longitude": -85.72759342,
      "acceptedMaterials": [
        "Clothing",
        "Linen",
        "Shoes"
      ],
      "logo": "goodwill.jpg",
      "permalink": "https://www.clothedonations.com/kentucky/the-umbrella-stand/",
      "lastUpdated": "5/05/2025"
    },
    {
      "id": "26835",
      "title": "The Salvation Army USA - Louisville Area Command",
      "company": "Unknown",
      "description": "Donation location - please contact for details",
      "state": "Kentucky",
      "stateSlug": "kentucky",
      "city": "Louisville",
      "address": "911 S Brook St, Louisville, KY 40202",
      "street": "911 S Brook St",
      "zip": "40202",
      "latitude": 38.24033355,
      "longitude": -85.75199285,
      "acceptedMaterials": [
        "Clothing",
        "Linen",
        "Shoes"
      ],
      "logo": "goodwill.jpg",
      "permalink": "https://www.clothedonations.com/kentucky/the-salvation-army-usa---louisville-area-command/",
      "lastUpdated": "5/05/2025"
    },
    {
      "id": "26836",
      "title": "Loaves and Fishes Inc",
      "company": "Unknown",
      "description": "Donation location - please contact for details",
      "state": "Kentucky",
      "stateSlug": "kentucky",
      "city": "Louisville",
      "address": "500 E Caldwell St, Louisville, KY 40202",
      "street": "500 E Caldwell St",
      "zip": "40202",
      "latitude": 38.2387614,
      "longitude": -85.746448,
      "acceptedMaterials": [
        "Clothing",
        "Linen",
        "Shoes"
      ],
      "logo": "goodwill.jpg",
      "permalink": "https://www.clothedonations.com/kentucky/loaves-and-fishes-inc/",
      "lastUpdated": "5/05/2025"
    },
    {
      "id": "26837",
      "title": "Catholic Charities of Louisville (Including Migration and Refugee Services)",
      "company": "Unknown",
      "description": "Donation location - please contact for details",
      "state": "Kentucky",
      "stateSlug": "kentucky",
      "city": "Louisville",
      "address": "435 E Broadway, Louisville, KY 40202",
      "street": "435 E Broadway",
      "zip": "40202",
      "latitude": 38.24549065,
      "longitude": -85.74611681,
      "acceptedMaterials": [
        "Clothing",
        "Linen",
        "Shoes"
      ],
      "logo": "goodwill.jpg",
      "permalink": "https://www.clothedonations.com/kentucky/catholic-charities-of-louisville-(including-migration-and-refugee-services)/",
      "lastUpdated": "5/05/2025"
    },
    {
      "id": "26838",
      "title": "St John Center",
      "company": "Unknown",
      "description": "Donation location - please contact for details",
      "state": "Kentucky",
      "stateSlug": "kentucky",
      "city": "Louisville",
      "address": "700 E Muhammad Ali Blvd, Louisville, KY 40202",
      "street": "700 E Muhammad Ali Blvd",
      "zip": "40202",
      "latitude": 38.249024,
      "longitude": -85.74058416,
      "acceptedMaterials": [
        "Clothing",
        "Linen",
        "Shoes"
      ],
      "logo": "goodwill.jpg",
      "permalink": "https://www.clothedonations.com/kentucky/st-john-center/",
      "lastUpdated": "5/05/2025"
    },
    {
      "id": "26839",
      "title": "St Martin of Tours Schuhmann",
      "company": "Unknown",
      "description": "Donation location - please contact for details",
      "state": "Kentucky",
      "stateSlug": "kentucky",
      "city": "Louisville",
      "address": "730 E Gray St, Louisville, KY 40202",
      "street": "730 E Gray St",
      "zip": "40202",
      "latitude": 38.245482,
      "longitude": -85.73996669,
      "acceptedMaterials": [
        "Clothing",
        "Linen",
        "Shoes"
      ],
      "logo": "goodwill.jpg",
      "permalink": "https://www.clothedonations.com/kentucky/st-martin-of-tours-schuhmann/",
      "lastUpdated": "5/05/2025"
    },
    {
      "id": "26840",
      "title": "Goodwill",
      "company": "Unknown",
      "description": "Donation location - please contact for details",
      "state": "Kentucky",
      "stateSlug": "kentucky",
      "city": "Louisville",
      "address": "4109 Taylorsville Rd, Louisville, KY 40202",
      "street": "4109 Taylorsville Rd",
      "zip": "40202",
      "latitude": 38.22327842,
      "longitude": -85.68372236,
      "acceptedMaterials": [
        "Clothing",
        "Linen",
        "Shoes"
      ],
      "logo": "goodwill.jpg",
      "permalink": "https://www.clothedonations.com/kentucky/goodwill/",
      "lastUpdated": "5/05/2025"
    },
    {
      "id": "26841",
      "title": "The Re-tail Thrift Shop",
      "company": "Unknown",
      "description": "Donation location - please contact for details",
      "state": "Kentucky",
      "stateSlug": "kentucky",
      "city": "#N/A",
      "address": "Louisville, KY 40202",
      "street": "Louisville",
      "zip": "40202",
      "latitude": 38.25122764,
      "longitude": -85.74940436,
      "acceptedMaterials": [
        "Clothing",
        "Linen",
        "Shoes"
      ],
      "logo": "goodwill.jpg",
      "permalink": "https://www.clothedonations.com/kentucky/the-re-tail-thrift-shop/",
      "lastUpdated": "5/05/2025"
    },
    {
      "id": "26842",
      "title": "Habitat for Humanity Louisville ReStore - Hikes Point",
      "company": "Unknown",
      "description": "Donation location - please contact for details",
      "state": "Kentucky",
      "stateSlug": "kentucky",
      "city": "Louisville",
      "address": "4044 Taylorsville Rd, Louisville, KY 40202",
      "street": "4044 Taylorsville Rd",
      "zip": "40202",
      "latitude": 38.22327842,
      "longitude": -85.68372236,
      "acceptedMaterials": [
        "Clothing",
        "Linen",
        "Shoes"
      ],
      "logo": "goodwill.jpg",
      "permalink": "https://www.clothedonations.com/kentucky/habitat-for-humanity-louisville-restore---hikes-point/",
      "lastUpdated": "5/05/2025"
    },
    {
      "id": "26843",
      "title": "Fat Rabbit Thrift & Vintage",
      "company": "Unknown",
      "description": "Donation location - please contact for details",
      "state": "Kentucky",
      "stateSlug": "kentucky",
      "city": "Louisville",
      "address": "994 Barret Ave, Louisville, KY 40202",
      "street": "994 Barret Ave",
      "zip": "40202",
      "latitude": 38.2365923,
      "longitude": -85.7285156,
      "acceptedMaterials": [
        "Clothing",
        "Linen",
        "Shoes"
      ],
      "logo": "goodwill.jpg",
      "permalink": "https://www.clothedonations.com/kentucky/fat-rabbit-thrift-&-vintage/",
      "lastUpdated": "5/05/2025"
    },
    {
      "id": "26844",
      "title": "Hopes Closet of Kentucky",
      "company": "Unknown",
      "description": "Donation location - please contact for details",
      "state": "Kentucky",
      "stateSlug": "kentucky",
      "city": "Louisville",
      "address": "3936 Taylorsville Rd, Louisville, KY 40202",
      "street": "3936 Taylorsville Rd",
      "zip": "40202",
      "latitude": 38.22327842,
      "longitude": -85.68372236,
      "acceptedMaterials": [
        "Clothing",
        "Linen",
        "Shoes"
      ],
      "logo": "goodwill.jpg",
      "permalink": "https://www.clothedonations.com/kentucky/hopes-closet-of-kentucky/",
      "lastUpdated": "5/05/2025"
    },
    {
      "id": "26845",
      "title": "Habitat for Humanity of Metro Louisville - Headquarters",
      "company": "Unknown",
      "description": "Donation location - please contact for details",
      "state": "Kentucky",
      "stateSlug": "kentucky",
      "city": "Louisville",
      "address": "1620 Bank St, Louisville, KY 40203",
      "street": "1620 Bank St",
      "zip": "40203",
      "latitude": 38.2610497,
      "longitude": -85.7774077,
      "acceptedMaterials": [
        "Clothing",
        "Linen",
        "Shoes"
      ],
      "logo": "goodwill.jpg",
      "permalink": "https://www.clothedonations.com/kentucky/habitat-for-humanity-of-metro-louisville---headquarters/",
      "lastUpdated": "5/05/2025"
    },
    {
      "id": "26846",
      "title": "Franciscan Kitchen",
      "company": "Unknown",
      "description": "Donation location - please contact for details",
      "state": "Kentucky",
      "stateSlug": "kentucky",
      "city": "Louisville",
      "address": "748 S Preston St, Louisville, KY 40203",
      "street": "748 S Preston St",
      "zip": "40203",
      "latitude": 38.243322,
      "longitude": -85.748105,
      "acceptedMaterials": [
        "Clothing",
        "Linen",
        "Shoes"
      ],
      "logo": "goodwill.jpg",
      "permalink": "https://www.clothedonations.com/kentucky/franciscan-kitchen/",
      "lastUpdated": "5/05/2025"
    },
    {
      "id": "26847",
      "title": "Highlands Community Ministries",
      "company": "Unknown",
      "description": "Donation location - please contact for details",
      "state": "Kentucky",
      "stateSlug": "kentucky",
      "city": "Louisville",
      "address": "1228 E Breckinridge St, Louisville, KY 40204",
      "street": "1228 E Breckinridge St",
      "zip": "40204",
      "latitude": 38.2399832,
      "longitude": -85.7312534,
      "acceptedMaterials": [
        "Clothing",
        "Linen",
        "Shoes"
      ],
      "logo": "goodwill.jpg",
      "permalink": "https://www.clothedonations.com/kentucky/highlands-community-ministries/",
      "lastUpdated": "5/05/2025"
    },
    {
      "id": "26848",
      "title": "Kosair for Kids Sam Swope Center",
      "company": "Unknown",
      "description": "Donation location - please contact for details",
      "state": "Kentucky",
      "stateSlug": "kentucky",
      "city": "Louisville",
      "address": "982 Eastern Pkwy, Louisville, KY 40204",
      "street": "982 Eastern Pkwy",
      "zip": "40204",
      "latitude": 38.2192028,
      "longitude": -85.733501,
      "acceptedMaterials": [
        "Clothing",
        "Linen",
        "Shoes"
      ],
      "logo": "goodwill.jpg",
      "permalink": "https://www.clothedonations.com/kentucky/kosair-for-kids-sam-swope-center/",
      "lastUpdated": "5/05/2025"
    },
    {
      "id": "26849",
      "title": "Shop Of Found Things, LLC",
      "company": "Unknown",
      "description": "Donation location - please contact for details",
      "state": "Kentucky",
      "stateSlug": "kentucky",
      "city": "Louisville",
      "address": "808 Clarks Ln, Louisville, KY 40204",
      "street": "808 Clarks Ln",
      "zip": "40204",
      "latitude": 38.2131073,
      "longitude": -85.7408789,
      "acceptedMaterials": [
        "Clothing",
        "Linen",
        "Shoes"
      ],
      "logo": "goodwill.jpg",
      "permalink": "https://www.clothedonations.com/kentucky/shop-of-found-things,-llc/",
      "lastUpdated": "5/05/2025"
    },
    {
      "id": "26850",
      "title": "Amvets Preston Post",
      "company": "Unknown",
      "description": "Donation location - please contact for details",
      "state": "Kentucky",
      "stateSlug": "kentucky",
      "city": "Louisville",
      "address": "1567 S Shelby St, Louisville, KY 40204",
      "street": "1567 S Shelby St",
      "zip": "40204",
      "latitude": 38.22227885,
      "longitude": -85.74271595,
      "acceptedMaterials": [
        "Clothing",
        "Linen",
        "Shoes"
      ],
      "logo": "goodwill.jpg",
      "permalink": "https://www.clothedonations.com/kentucky/amvets-preston-post/",
      "lastUpdated": "5/05/2025"
    },
    {
      "id": "26851",
      "title": "Sisters of Charity of Nazareth",
      "company": "Unknown",
      "description": "Donation location - please contact for details",
      "state": "Kentucky",
      "stateSlug": "kentucky",
      "city": "Louisville",
      "address": "2002 Newburg Rd, Louisville, KY 40205",
      "street": "2002 Newburg Rd",
      "zip": "40205",
      "latitude": 38.2184134,
      "longitude": -85.71125621,
      "acceptedMaterials": [
        "Clothing",
        "Linen",
        "Shoes"
      ],
      "logo": "goodwill.jpg",
      "permalink": "https://www.clothedonations.com/kentucky/sisters-of-charity-of-nazareth/",
      "lastUpdated": "5/05/2025"
    },
    {
      "id": "26852",
      "title": "Goodwill Outlet",
      "company": "Unknown",
      "description": "Donation location - please contact for details",
      "state": "Kentucky",
      "stateSlug": "kentucky",
      "city": "Louisville",
      "address": "6201 Preston Hwy Ste B, Louisville, KY 40205",
      "street": "6201 Preston Hwy Ste B",
      "zip": "40205",
      "latitude": 38.1612299,
      "longitude": -85.6961126,
      "acceptedMaterials": [
        "Clothing",
        "Linen",
        "Shoes"
      ],
      "logo": "goodwill.jpg",
      "permalink": "https://www.clothedonations.com/kentucky/goodwill-outlet/",
      "lastUpdated": "5/05/2025"
    },
    {
      "id": "26853",
      "title": "Goodwill",
      "company": "Unknown",
      "description": "Donation location - please contact for details",
      "state": "Kentucky",
      "stateSlug": "kentucky",
      "city": "#N/A",
      "address": "Louisville, KY 40205",
      "street": "Louisville",
      "zip": "40205",
      "latitude": 38.22212286,
      "longitude": -85.6868068,
      "acceptedMaterials": [
        "Clothing",
        "Linen",
        "Shoes"
      ],
      "logo": "goodwill.jpg",
      "permalink": "https://www.clothedonations.com/kentucky/goodwill/",
      "lastUpdated": "5/05/2025"
    },
    {
      "id": "26854",
      "title": "Goodwill",
      "company": "Unknown",
      "description": "Donation location - please contact for details",
      "state": "Kentucky",
      "stateSlug": "kentucky",
      "city": "Louisville",
      "address": "5230 Bardstown Rd, Louisville, KY 40205",
      "street": "5230 Bardstown Rd",
      "zip": "40205",
      "latitude": 38.1695711,
      "longitude": -85.6071339,
      "acceptedMaterials": [
        "Clothing",
        "Linen",
        "Shoes"
      ],
      "logo": "goodwill.jpg",
      "permalink": "https://www.clothedonations.com/kentucky/goodwill/",
      "lastUpdated": "5/05/2025"
    },
    {
      "id": "26855",
      "title": "Goodwill Opportunity Center - South Louisville",
      "company": "Unknown",
      "description": "Donation location - please contact for details",
      "state": "Kentucky",
      "stateSlug": "kentucky",
      "city": "Louisville",
      "address": "6201 Preston Hwy a, Louisville, KY 40206",
      "street": "6201 Preston Hwy a",
      "zip": "40206",
      "latitude": 38.1612299,
      "longitude": -85.6961126,
      "acceptedMaterials": [
        "Clothing",
        "Linen",
        "Shoes"
      ],
      "logo": "goodwill.jpg",
      "permalink": "https://www.clothedonations.com/kentucky/goodwill-opportunity-center---south-louisville/",
      "lastUpdated": "5/05/2025"
    },
    {
      "id": "26856",
      "title": "Express",
      "company": "Unknown",
      "description": "Donation location - please contact for details",
      "state": "Kentucky",
      "stateSlug": "kentucky",
      "city": "#N/A",
      "address": "Louisville, KY 40207",
      "street": "Louisville",
      "zip": "40207",
      "latitude": 38.2542376,
      "longitude": -85.759407,
      "acceptedMaterials": [
        "Clothing",
        "Linen",
        "Shoes"
      ],
      "logo": "goodwill.jpg",
      "permalink": "https://www.clothedonations.com/kentucky/express/",
      "lastUpdated": "5/05/2025"
    },
    {
      "id": "26857",
      "title": "Goodwill",
      "company": "Unknown",
      "description": "Donation location - please contact for details",
      "state": "Kentucky",
      "stateSlug": "kentucky",
      "city": "Louisville",
      "address": "133 S Hurstbourne Pkwy, Louisville, KY 40207",
      "street": "133 S Hurstbourne Pkwy",
      "zip": "40207",
      "latitude": 38.2441326,
      "longitude": -85.5762811,
      "acceptedMaterials": [
        "Clothing",
        "Linen",
        "Shoes"
      ],
      "logo": "goodwill.jpg",
      "permalink": "https://www.clothedonations.com/kentucky/goodwill/",
      "lastUpdated": "5/05/2025"
    },
    {
      "id": "26858",
      "title": "Goodwill",
      "company": "Unknown",
      "description": "Donation location - please contact for details",
      "state": "Kentucky",
      "stateSlug": "kentucky",
      "city": "Louisville",
      "address": "4950 West U.S. Highway #42, Louisville, KY 40207",
      "street": "4950 West U.S. Highway #42",
      "zip": "40207",
      "latitude": 38.285545,
      "longitude": -85.630941,
      "acceptedMaterials": [
        "Clothing",
        "Linen",
        "Shoes"
      ],
      "logo": "goodwill.jpg",
      "permalink": "https://www.clothedonations.com/kentucky/goodwill/",
      "lastUpdated": "5/05/2025"
    },
    {
      "id": "26859",
      "title": "Restore Donation Center",
      "company": "Unknown",
      "description": "Donation location - please contact for details",
      "state": "Kentucky",
      "stateSlug": "kentucky",
      "city": "#N/A",
      "address": "Louisville, KY 40207",
      "street": "Louisville",
      "zip": "40207",
      "latitude": 38.2542376,
      "longitude": -85.759407,
      "acceptedMaterials": [
        "Clothing",
        "Linen",
        "Shoes"
      ],
      "logo": "goodwill.jpg",
      "permalink": "https://www.clothedonations.com/kentucky/restore-donation-center/",
      "lastUpdated": "5/05/2025"
    },
    {
      "id": "26860",
      "title": "Wayside Christian Mission",
      "company": "Unknown",
      "description": "Donation location - please contact for details",
      "state": "Kentucky",
      "stateSlug": "kentucky",
      "city": "Louisville",
      "address": "9125 Galene Dr A, Louisville, KY 40207",
      "street": "9125 Galene Dr A",
      "zip": "40207",
      "latitude": 38.199698,
      "longitude": -85.588054,
      "acceptedMaterials": [
        "Clothing",
        "Linen",
        "Shoes"
      ],
      "logo": "goodwill.jpg",
      "permalink": "https://www.clothedonations.com/kentucky/wayside-christian-mission/",
      "lastUpdated": "5/05/2025"
    },
    {
      "id": "26861",
      "title": "Salvation Army Louisville South Corps",
      "company": "Unknown",
      "description": "Donation location - please contact for details",
      "state": "Kentucky",
      "stateSlug": "kentucky",
      "city": "Louisville",
      "address": "1010 Beecher St, Louisville, KY 40208",
      "street": "1010 Beecher St",
      "zip": "40208",
      "latitude": 38.19162065,
      "longitude": -85.77754639,
      "acceptedMaterials": [
        "Clothing",
        "Linen",
        "Shoes"
      ],
      "logo": "goodwill.jpg",
      "permalink": "https://www.clothedonations.com/kentucky/salvation-army-louisville-south-corps/",
      "lastUpdated": "5/05/2025"
    },
    {
      "id": "26862",
      "title": "The Lords Kitchen COH",
      "company": "Unknown",
      "description": "Donation location - please contact for details",
      "state": "Kentucky",
      "stateSlug": "kentucky",
      "city": "Louisville",
      "address": "1811 Standard Ave, Louisville, KY 40208",
      "street": "1811 Standard Ave",
      "zip": "40208",
      "latitude": 38.2314438,
      "longitude": -85.7902201,
      "acceptedMaterials": [
        "Clothing",
        "Linen",
        "Shoes"
      ],
      "logo": "goodwill.jpg",
      "permalink": "https://www.clothedonations.com/kentucky/the-lords-kitchen-coh/",
      "lastUpdated": "5/05/2025"
    },
    {
      "id": "26863",
      "title": "Coalition for the Homeless",
      "company": "Unknown",
      "description": "Donation location - please contact for details",
      "state": "Kentucky",
      "stateSlug": "kentucky",
      "city": "Louisville",
      "address": "1300 S 4th St #250, Louisville, KY 40208",
      "street": "1300 S 4th St #250",
      "zip": "40208",
      "latitude": 38.23249095,
      "longitude": -85.7610176,
      "acceptedMaterials": [
        "Clothing",
        "Linen",
        "Shoes"
      ],
      "logo": "goodwill.jpg",
      "permalink": "https://www.clothedonations.com/kentucky/coalition-for-the-homeless/",
      "lastUpdated": "5/05/2025"
    },
    {
      "id": "26864",
      "title": "Infant Resource Project",
      "company": "Unknown",
      "description": "Donation location - please contact for details",
      "state": "Kentucky",
      "stateSlug": "kentucky",
      "city": "Louisville",
      "address": "1143 S 3rd St, Louisville, KY 40208",
      "street": "1143 S 3rd St",
      "zip": "40208",
      "latitude": 38.2356114,
      "longitude": -85.75791569,
      "acceptedMaterials": [
        "Clothing",
        "Linen",
        "Shoes"
      ],
      "logo": "goodwill.jpg",
      "permalink": "https://www.clothedonations.com/kentucky/infant-resource-project/",
      "lastUpdated": "5/05/2025"
    },
    {
      "id": "26865",
      "title": "Community Ministries of Walnut Street Baptist Church Food Pantry",
      "company": "Unknown",
      "description": "Donation location - please contact for details",
      "state": "Kentucky",
      "stateSlug": "kentucky",
      "city": "Louisville",
      "address": "220 St Catherine St, Louisville, KY 40208",
      "street": "220 St Catherine St",
      "zip": "40208",
      "latitude": 38.237011,
      "longitude": -85.75772,
      "acceptedMaterials": [
        "Clothing",
        "Linen",
        "Shoes"
      ],
      "logo": "goodwill.jpg",
      "permalink": "https://www.clothedonations.com/kentucky/community-ministries-of-walnut-street-baptist-church-food-pantry/",
      "lastUpdated": "5/05/2025"
    },
    {
      "id": "26866",
      "title": "Center For Women & Families",
      "company": "Unknown",
      "description": "Donation location - please contact for details",
      "state": "Kentucky",
      "stateSlug": "kentucky",
      "city": "Louisville",
      "address": "927 S 2nd St, Louisville, KY 40208",
      "street": "927 S 2nd St",
      "zip": "40208",
      "latitude": 38.240357,
      "longitude": -85.755663,
      "acceptedMaterials": [
        "Clothing",
        "Linen",
        "Shoes"
      ],
      "logo": "goodwill.jpg",
      "permalink": "https://www.clothedonations.com/kentucky/center-for-women-&-families/",
      "lastUpdated": "5/05/2025"
    },
    {
      "id": "26867",
      "title": "La Casita Center",
      "company": "Unknown",
      "description": "Donation location - please contact for details",
      "state": "Kentucky",
      "stateSlug": "kentucky",
      "city": "Louisville",
      "address": "223 E Magnolia Ave, Louisville, KY 40208",
      "street": "223 E Magnolia Ave",
      "zip": "40208",
      "latitude": 38.2285606,
      "longitude": -85.7535329,
      "acceptedMaterials": [
        "Clothing",
        "Linen",
        "Shoes"
      ],
      "logo": "goodwill.jpg",
      "permalink": "https://www.clothedonations.com/kentucky/la-casita-center/",
      "lastUpdated": "5/05/2025"
    },
    {
      "id": "26868",
      "title": "The Salvation Army Angel Tree Joy Center",
      "company": "Unknown",
      "description": "Donation location - please contact for details",
      "state": "Kentucky",
      "stateSlug": "kentucky",
      "city": "Louisville",
      "address": "6306 Kenjoy Dr, Louisville, KY 40209",
      "street": "6306 Kenjoy Dr",
      "zip": "40209",
      "latitude": 38.1668634,
      "longitude": -85.75964047,
      "acceptedMaterials": [
        "Clothing",
        "Linen",
        "Shoes"
      ],
      "logo": "goodwill.jpg",
      "permalink": "https://www.clothedonations.com/kentucky/the-salvation-army-angel-tree-joy-center/",
      "lastUpdated": "5/05/2025"
    },
    {
      "id": "26869",
      "title": "C2K Thrift",
      "company": "Unknown",
      "description": "Donation location - please contact for details",
      "state": "Kentucky",
      "stateSlug": "kentucky",
      "city": "#N/A",
      "address": "Louisville, KY 40210",
      "street": "Louisville",
      "zip": "40210",
      "latitude": 38.23108287,
      "longitude": -85.7894493,
      "acceptedMaterials": [
        "Clothing",
        "Linen",
        "Shoes"
      ],
      "logo": "goodwill.jpg",
      "permalink": "https://www.clothedonations.com/kentucky/c2k-thrift/",
      "lastUpdated": "5/05/2025"
    },
    {
      "id": "26870",
      "title": "Goodwill West Louisville Opportunity Center",
      "company": "Unknown",
      "description": "Donation location - please contact for details",
      "state": "Kentucky",
      "stateSlug": "kentucky",
      "city": "Louisville",
      "address": "2820 W Broadway, Louisville, KY 40210",
      "street": "2820 W Broadway",
      "zip": "40210",
      "latitude": 38.248394,
      "longitude": -85.799189,
      "acceptedMaterials": [
        "Clothing",
        "Linen",
        "Shoes"
      ],
      "logo": "goodwill.jpg",
      "permalink": "https://www.clothedonations.com/kentucky/goodwill-west-louisville-opportunity-center/",
      "lastUpdated": "5/05/2025"
    },
    {
      "id": "26871",
      "title": "Neighborhood House",
      "company": "Unknown",
      "description": "Donation location - please contact for details",
      "state": "Kentucky",
      "stateSlug": "kentucky",
      "city": "Louisville",
      "address": "201 N 25th St, Louisville, KY 40210",
      "street": "201 N 25th St",
      "zip": "40210",
      "latitude": 38.261951,
      "longitude": -85.790878,
      "acceptedMaterials": [
        "Clothing",
        "Linen",
        "Shoes"
      ],
      "logo": "goodwill.jpg",
      "permalink": "https://www.clothedonations.com/kentucky/neighborhood-house/",
      "lastUpdated": "5/05/2025"
    },
    {
      "id": "26872",
      "title": "Sister Visitor Center - Choice Food Pantry",
      "company": "Unknown",
      "description": "Donation location - please contact for details",
      "state": "Kentucky",
      "stateSlug": "kentucky",
      "city": "Louisville",
      "address": "2235 W Market St, Louisville, KY 40210",
      "street": "2235 W Market St",
      "zip": "40210",
      "latitude": 38.2589356,
      "longitude": -85.788025,
      "acceptedMaterials": [
        "Clothing",
        "Linen",
        "Shoes"
      ],
      "logo": "goodwill.jpg",
      "permalink": "https://www.clothedonations.com/kentucky/sister-visitor-center---choice-food-pantry/",
      "lastUpdated": "5/05/2025"
    },
    {
      "id": "26873",
      "title": "Goodwill - Administrative Office",
      "company": "Unknown",
      "description": "Donation location - please contact for details",
      "state": "Kentucky",
      "stateSlug": "kentucky",
      "city": "Louisville",
      "address": "2820 W Broadway, Louisville, KY 40210",
      "street": "2820 W Broadway",
      "zip": "40210",
      "latitude": 38.248394,
      "longitude": -85.799189,
      "acceptedMaterials": [
        "Clothing",
        "Linen",
        "Shoes"
      ],
      "logo": "goodwill.jpg",
      "permalink": "https://www.clothedonations.com/kentucky/goodwill---administrative-office/",
      "lastUpdated": "5/05/2025"
    },
    {
      "id": "26874",
      "title": "Dare To Care Senior Outreach Warehouse",
      "company": "Unknown",
      "description": "Donation location - please contact for details",
      "state": "Kentucky",
      "stateSlug": "kentucky",
      "city": "#N/A",
      "address": "Louisville, KY 40210",
      "street": "Louisville",
      "zip": "40210",
      "latitude": 38.23108287,
      "longitude": -85.7894493,
      "acceptedMaterials": [
        "Clothing",
        "Linen",
        "Shoes"
      ],
      "logo": "goodwill.jpg",
      "permalink": "https://www.clothedonations.com/kentucky/dare-to-care-senior-outreach-warehouse/",
      "lastUpdated": "5/05/2025"
    },
    {
      "id": "26875",
      "title": "Merriment Thrift",
      "company": "Unknown",
      "description": "Donation location - please contact for details",
      "state": "Kentucky",
      "stateSlug": "kentucky",
      "city": "Louisville",
      "address": "2533 Portland Ave, Louisville, KY 40210",
      "street": "2533 Portland Ave",
      "zip": "40210",
      "latitude": 38.271306,
      "longitude": -85.7901462,
      "acceptedMaterials": [
        "Clothing",
        "Linen",
        "Shoes"
      ],
      "logo": "goodwill.jpg",
      "permalink": "https://www.clothedonations.com/kentucky/merriment-thrift/",
      "lastUpdated": "5/05/2025"
    },
    {
      "id": "26876",
      "title": "Barret Babes",
      "company": "Unknown",
      "description": "Donation location - please contact for details",
      "state": "Kentucky",
      "stateSlug": "kentucky",
      "city": "Louisville",
      "address": "970 Barret Ave, Louisville, KY 40210",
      "street": "970 Barret Ave",
      "zip": "40210",
      "latitude": 38.23727725,
      "longitude": -85.7291204,
      "acceptedMaterials": [
        "Clothing",
        "Linen",
        "Shoes"
      ],
      "logo": "goodwill.jpg",
      "permalink": "https://www.clothedonations.com/kentucky/barret-babes/",
      "lastUpdated": "5/05/2025"
    },
    {
      "id": "26877",
      "title": "VOA HOME | Louisville",
      "company": "Unknown",
      "description": "Donation location - please contact for details",
      "state": "Kentucky",
      "stateSlug": "kentucky",
      "city": "Louisville",
      "address": "1321 S Preston St, Louisville, KY 40210",
      "street": "1321 S Preston St",
      "zip": "40210",
      "latitude": 38.2303922,
      "longitude": -85.7497596,
      "acceptedMaterials": [
        "Clothing",
        "Linen",
        "Shoes"
      ],
      "logo": "goodwill.jpg",
      "permalink": "https://www.clothedonations.com/kentucky/voa-home-|-louisville/",
      "lastUpdated": "5/05/2025"
    },
    {
      "id": "26878",
      "title": "The Nitty Gritty",
      "company": "Unknown",
      "description": "Donation location - please contact for details",
      "state": "Kentucky",
      "stateSlug": "kentucky",
      "city": "Louisville",
      "address": "996 Barret Ave, Louisville, KY 40210",
      "street": "996 Barret Ave",
      "zip": "40210",
      "latitude": 38.2365439,
      "longitude": -85.7284693,
      "acceptedMaterials": [
        "Clothing",
        "Linen",
        "Shoes"
      ],
      "logo": "goodwill.jpg",
      "permalink": "https://www.clothedonations.com/kentucky/the-nitty-gritty/",
      "lastUpdated": "5/05/2025"
    },
    {
      "id": "26879",
      "title": "Society Of Saint Vincent De Paul, Council Of Louisville, Ky - Food Distribution Center",
      "company": "Unknown",
      "description": "Donation location - please contact for details",
      "state": "Kentucky",
      "stateSlug": "kentucky",
      "city": "Louisville",
      "address": "415 E St Catherine St, Louisville, KY 40210",
      "street": "415 E St Catherine St",
      "zip": "40210",
      "latitude": 38.2360456,
      "longitude": -85.74826649,
      "acceptedMaterials": [
        "Clothing",
        "Linen",
        "Shoes"
      ],
      "logo": "goodwill.jpg",
      "permalink": "https://www.clothedonations.com/kentucky/society-of-saint-vincent-de-paul,-council-of-louisville,-ky---food-distribution-center/",
      "lastUpdated": "5/05/2025"
    },
    {
      "id": "26880",
      "title": "Catholic Charities of Louisville Sister Visitor Center",
      "company": "Unknown",
      "description": "Donation location - please contact for details",
      "state": "Kentucky",
      "stateSlug": "kentucky",
      "city": "Louisville",
      "address": "2235 W Market St, Louisville, KY 40211",
      "street": "2235 W Market St",
      "zip": "40211",
      "latitude": 38.2589356,
      "longitude": -85.788025,
      "acceptedMaterials": [
        "Clothing",
        "Linen",
        "Shoes"
      ],
      "logo": "goodwill.jpg",
      "permalink": "https://www.clothedonations.com/kentucky/catholic-charities-of-louisville-sister-visitor-center/",
      "lastUpdated": "5/05/2025"
    },
    {
      "id": "26881",
      "title": "Love City, Inc.",
      "company": "Unknown",
      "description": "Donation location - please contact for details",
      "state": "Kentucky",
      "stateSlug": "kentucky",
      "city": "Louisville",
      "address": "344 N 26th St, Louisville, KY 40211",
      "street": "344 N 26th St",
      "zip": "40211",
      "latitude": 38.26524535,
      "longitude": -85.7934291,
      "acceptedMaterials": [
        "Clothing",
        "Linen",
        "Shoes"
      ],
      "logo": "goodwill.jpg",
      "permalink": "https://www.clothedonations.com/kentucky/love-city,-inc./",
      "lastUpdated": "5/05/2025"
    },
    {
      "id": "26882",
      "title": "Hope Rescued",
      "company": "Unknown",
      "description": "Donation location - please contact for details",
      "state": "Kentucky",
      "stateSlug": "kentucky",
      "city": "Louisville",
      "address": "2833 Garfield Ave, Louisville, KY 40211",
      "street": "2833 Garfield Ave",
      "zip": "40211",
      "latitude": 38.2677973,
      "longitude": -85.7971428,
      "acceptedMaterials": [
        "Clothing",
        "Linen",
        "Shoes"
      ],
      "logo": "goodwill.jpg",
      "permalink": "https://www.clothedonations.com/kentucky/hope-rescued/",
      "lastUpdated": "5/05/2025"
    },
    {
      "id": "26883",
      "title": "The Salvation Army",
      "company": "Unknown",
      "description": "Donation location - please contact for details",
      "state": "Kentucky",
      "stateSlug": "kentucky",
      "city": "Louisville",
      "address": "306 N 28th St, Louisville, KY 40212",
      "street": "306 N 28th St",
      "zip": "40212",
      "latitude": 38.2665412,
      "longitude": -85.7958472,
      "acceptedMaterials": [
        "Clothing",
        "Linen",
        "Shoes"
      ],
      "logo": "goodwill.jpg",
      "permalink": "https://www.clothedonations.com/kentucky/the-salvation-army/",
      "lastUpdated": "5/05/2025"
    },
    {
      "id": "26884",
      "title": "Portland Avenue Community Trust - Food Distribution Center",
      "company": "Unknown",
      "description": "Donation location - please contact for details",
      "state": "Kentucky",
      "stateSlug": "kentucky",
      "city": "Louisville",
      "address": "2508 Portland Ave, Louisville, KY 40212",
      "street": "2508 Portland Ave",
      "zip": "40212",
      "latitude": 38.2699674,
      "longitude": -85.78969914,
      "acceptedMaterials": [
        "Clothing",
        "Linen",
        "Shoes"
      ],
      "logo": "goodwill.jpg",
      "permalink": "https://www.clothedonations.com/kentucky/portland-avenue-community-trust---food-distribution-center/",
      "lastUpdated": "5/05/2025"
    },
    {
      "id": "26885",
      "title": "New Roots",
      "company": "Unknown",
      "description": "Donation location - please contact for details",
      "state": "Kentucky",
      "stateSlug": "kentucky",
      "city": "Louisville",
      "address": "1800 Portland Ave #1060, Louisville, KY 40212",
      "street": "1800 Portland Ave #1060",
      "zip": "40212",
      "latitude": 38.26430145,
      "longitude": -85.77758303,
      "acceptedMaterials": [
        "Clothing",
        "Linen",
        "Shoes"
      ],
      "logo": "goodwill.jpg",
      "permalink": "https://www.clothedonations.com/kentucky/new-roots/",
      "lastUpdated": "5/05/2025"
    },
    {
      "id": "26886",
      "title": "Goodwill Second Chance Outlet",
      "company": "Unknown",
      "description": "Donation location - please contact for details",
      "state": "Kentucky",
      "stateSlug": "kentucky",
      "city": "Louisville",
      "address": "6201 Preston Hwy D, Louisville, KY 40213",
      "street": "6201 Preston Hwy D",
      "zip": "40213",
      "latitude": 38.1604559,
      "longitude": -85.6962003,
      "acceptedMaterials": [
        "Clothing",
        "Linen",
        "Shoes"
      ],
      "logo": "goodwill.jpg",
      "permalink": "https://www.clothedonations.com/kentucky/goodwill-second-chance-outlet/",
      "lastUpdated": "5/05/2025"
    },
    {
      "id": "26887",
      "title": "City Store + Outreach Center",
      "company": "Unknown",
      "description": "Donation location - please contact for details",
      "state": "Kentucky",
      "stateSlug": "kentucky",
      "city": "Louisville",
      "address": "7209b Fegenbush Ln, Louisville, KY 40213",
      "street": "7209b Fegenbush Ln",
      "zip": "40213",
      "latitude": 38.1454368,
      "longitude": -85.6264687,
      "acceptedMaterials": [
        "Clothing",
        "Linen",
        "Shoes"
      ],
      "logo": "goodwill.jpg",
      "permalink": "https://www.clothedonations.com/kentucky/city-store-+-outreach-center/",
      "lastUpdated": "5/05/2025"
    },
    {
      "id": "26888",
      "title": "South Louisville Community Ministries",
      "company": "Unknown",
      "description": "Donation location - please contact for details",
      "state": "Kentucky",
      "stateSlug": "kentucky",
      "city": "Louisville",
      "address": "415 1/2 W Ashland Ave, Louisville, KY 40214",
      "street": "415 1/2 W Ashland Ave",
      "zip": "40214",
      "latitude": 38.1858552,
      "longitude": -85.76833213,
      "acceptedMaterials": [
        "Clothing",
        "Linen",
        "Shoes"
      ],
      "logo": "goodwill.jpg",
      "permalink": "https://www.clothedonations.com/kentucky/south-louisville-community-ministries/",
      "lastUpdated": "5/05/2025"
    },
    {
      "id": "26889",
      "title": "Shirleys Deals PRP",
      "company": "Unknown",
      "description": "Donation location - please contact for details",
      "state": "Kentucky",
      "stateSlug": "kentucky",
      "city": "#N/A",
      "address": "Louisville, KY 40214",
      "street": "Louisville",
      "zip": "40214",
      "latitude": 38.15748253,
      "longitude": -85.77942663,
      "acceptedMaterials": [
        "Clothing",
        "Linen",
        "Shoes"
      ],
      "logo": "goodwill.jpg",
      "permalink": "https://www.clothedonations.com/kentucky/shirleys-deals-prp/",
      "lastUpdated": "5/05/2025"
    },
    {
      "id": "26890",
      "title": "Love Transformation Project",
      "company": "Unknown",
      "description": "Donation location - please contact for details",
      "state": "Kentucky",
      "stateSlug": "kentucky",
      "city": "Louisville",
      "address": "4335 Hazelwood Ave, Louisville, KY 40214",
      "street": "4335 Hazelwood Ave",
      "zip": "40214",
      "latitude": 38.17760015,
      "longitude": -85.78925655,
      "acceptedMaterials": [
        "Clothing",
        "Linen",
        "Shoes"
      ],
      "logo": "goodwill.jpg",
      "permalink": "https://www.clothedonations.com/kentucky/love-transformation-project/",
      "lastUpdated": "5/05/2025"
    },
    {
      "id": "26891",
      "title": "Twice Blessed",
      "company": "Unknown",
      "description": "Donation location - please contact for details",
      "state": "Kentucky",
      "stateSlug": "kentucky",
      "city": "Louisville",
      "address": "6105 S 3rd St, Louisville, KY 40214",
      "street": "6105 S 3rd St",
      "zip": "40214",
      "latitude": 38.16724204,
      "longitude": -85.76863982,
      "acceptedMaterials": [
        "Clothing",
        "Linen",
        "Shoes"
      ],
      "logo": "goodwill.jpg",
      "permalink": "https://www.clothedonations.com/kentucky/twice-blessed/",
      "lastUpdated": "5/05/2025"
    },
    {
      "id": "26892",
      "title": "Light House Charities",
      "company": "Unknown",
      "description": "Donation location - please contact for details",
      "state": "Kentucky",
      "stateSlug": "kentucky",
      "city": "#N/A",
      "address": "Louisville, KY 40215",
      "street": "Louisville",
      "zip": "40215",
      "latitude": 38.1918627,
      "longitude": -85.7848014,
      "acceptedMaterials": [
        "Clothing",
        "Linen",
        "Shoes"
      ],
      "logo": "goodwill.jpg",
      "permalink": "https://www.clothedonations.com/kentucky/light-house-charities/",
      "lastUpdated": "5/05/2025"
    },
    {
      "id": "26893",
      "title": "Reuse Buy",
      "company": "Unknown",
      "description": "Donation location - please contact for details",
      "state": "Kentucky",
      "stateSlug": "kentucky",
      "city": "Louisville",
      "address": "2501 Millers Ln Suite 1113, Louisville, KY 40215",
      "street": "2501 Millers Ln Suite 1113",
      "zip": "40215",
      "latitude": 38.2174495,
      "longitude": -85.80528394,
      "acceptedMaterials": [
        "Clothing",
        "Linen",
        "Shoes"
      ],
      "logo": "goodwill.jpg",
      "permalink": "https://www.clothedonations.com/kentucky/reuse-buy/",
      "lastUpdated": "5/05/2025"
    },
    {
      "id": "26894",
      "title": "Shively Area Ministries",
      "company": "Unknown",
      "description": "Donation location - please contact for details",
      "state": "Kentucky",
      "stateSlug": "kentucky",
      "city": "#N/A",
      "address": "Louisville, KY 40216",
      "street": "Louisville",
      "zip": "40216",
      "latitude": 38.18513203,
      "longitude": -85.83110877,
      "acceptedMaterials": [
        "Clothing",
        "Linen",
        "Shoes"
      ],
      "logo": "goodwill.jpg",
      "permalink": "https://www.clothedonations.com/kentucky/shively-area-ministries/",
      "lastUpdated": "5/05/2025"
    },
    {
      "id": "26895",
      "title": "The Groovy Aura",
      "company": "Unknown",
      "description": "Donation location - please contact for details",
      "state": "Kentucky",
      "stateSlug": "kentucky",
      "city": "Louisville",
      "address": "1570 Bardstown Rd, Louisville, KY 40217",
      "street": "1570 Bardstown Rd",
      "zip": "40217",
      "latitude": 38.2309647,
      "longitude": -85.7058987,
      "acceptedMaterials": [
        "Clothing",
        "Linen",
        "Shoes"
      ],
      "logo": "goodwill.jpg",
      "permalink": "https://www.clothedonations.com/kentucky/the-groovy-aura/",
      "lastUpdated": "5/05/2025"
    },
    {
      "id": "26896",
      "title": "Goodwill",
      "company": "Unknown",
      "description": "Donation location - please contact for details",
      "state": "Kentucky",
      "stateSlug": "kentucky",
      "city": "Louisville",
      "address": "5117 Antle Dr, Louisville, KY 40219",
      "street": "5117 Antle Dr",
      "zip": "40219",
      "latitude": 38.0879182,
      "longitude": -85.66906006,
      "acceptedMaterials": [
        "Clothing",
        "Linen",
        "Shoes"
      ],
      "logo": "goodwill.jpg",
      "permalink": "https://www.clothedonations.com/kentucky/goodwill/",
      "lastUpdated": "5/05/2025"
    },
    {
      "id": "26897",
      "title": "Shirleys Deals Hillview",
      "company": "Unknown",
      "description": "Donation location - please contact for details",
      "state": "Kentucky",
      "stateSlug": "kentucky",
      "city": "Louisville",
      "address": "11330 Preston Hwy, Louisville, KY 40219",
      "street": "11330 Preston Hwy",
      "zip": "40219",
      "latitude": 38.0842112,
      "longitude": -85.6702635,
      "acceptedMaterials": [
        "Clothing",
        "Linen",
        "Shoes"
      ],
      "logo": "goodwill.jpg",
      "permalink": "https://www.clothedonations.com/kentucky/shirleys-deals-hillview/",
      "lastUpdated": "5/05/2025"
    },
    {
      "id": "26898",
      "title": "The River City Love Squad, Inc.",
      "company": "Unknown",
      "description": "Donation location - please contact for details",
      "state": "Kentucky",
      "stateSlug": "kentucky",
      "city": "#N/A",
      "address": "Louisville, KY 40219",
      "street": "Louisville",
      "zip": "40219",
      "latitude": 38.14301061,
      "longitude": -85.67753273,
      "acceptedMaterials": [
        "Clothing",
        "Linen",
        "Shoes"
      ],
      "logo": "goodwill.jpg",
      "permalink": "https://www.clothedonations.com/kentucky/the-river-city-love-squad,-inc./",
      "lastUpdated": "5/05/2025"
    },
    {
      "id": "26899",
      "title": "Goodwill",
      "company": "Unknown",
      "description": "Donation location - please contact for details",
      "state": "Kentucky",
      "stateSlug": "kentucky",
      "city": "Louisville",
      "address": "12616 Taylorsville Rd, Louisville, KY 40220",
      "street": "12616 Taylorsville Rd",
      "zip": "40220",
      "latitude": 38.18737,
      "longitude": -85.5171427,
      "acceptedMaterials": [
        "Clothing",
        "Linen",
        "Shoes"
      ],
      "logo": "goodwill.jpg",
      "permalink": "https://www.clothedonations.com/kentucky/goodwill/",
      "lastUpdated": "5/05/2025"
    },
    {
      "id": "26900",
      "title": "Clothes Mentor Louisville, KY (Taylorsville)",
      "company": "Unknown",
      "description": "Donation location - please contact for details",
      "state": "Kentucky",
      "stateSlug": "kentucky",
      "city": "Louisville",
      "address": "4064 Taylorsville Rd, Louisville, KY 40220",
      "street": "4064 Taylorsville Rd",
      "zip": "40220",
      "latitude": 38.217912,
      "longitude": -85.6225224,
      "acceptedMaterials": [
        "Clothing",
        "Linen",
        "Shoes"
      ],
      "logo": "goodwill.jpg",
      "permalink": "https://www.clothedonations.com/kentucky/clothes-mentor-louisville,-ky-(taylorsville)/",
      "lastUpdated": "5/05/2025"
    },
    {
      "id": "26901",
      "title": "Once Upon A Child",
      "company": "Unknown",
      "description": "Donation location - please contact for details",
      "state": "Kentucky",
      "stateSlug": "kentucky",
      "city": "Louisville",
      "address": "4030 Taylorsville Rd, Louisville, KY 40220",
      "street": "4030 Taylorsville Rd",
      "zip": "40220",
      "latitude": 38.21921435,
      "longitude": -85.62351184,
      "acceptedMaterials": [
        "Clothing",
        "Linen",
        "Shoes"
      ],
      "logo": "goodwill.jpg",
      "permalink": "https://www.clothedonations.com/kentucky/once-upon-a-child/",
      "lastUpdated": "5/05/2025"
    },
    {
      "id": "26902",
      "title": "Kentucky Refugee Ministries, Inc.",
      "company": "Unknown",
      "description": "Donation location - please contact for details",
      "state": "Kentucky",
      "stateSlug": "kentucky",
      "city": "Louisville",
      "address": "969-B Cherokee Rd, Louisville, KY 40221",
      "street": "969-B Cherokee Rd",
      "zip": "40221",
      "latitude": 38.24163,
      "longitude": -85.722799,
      "acceptedMaterials": [
        "Clothing",
        "Linen",
        "Shoes"
      ],
      "logo": "goodwill.jpg",
      "permalink": "https://www.clothedonations.com/kentucky/kentucky-refugee-ministries,-inc./",
      "lastUpdated": "5/05/2025"
    },
    {
      "id": "26903",
      "title": "St John Vianney Catholic Church",
      "company": "Unknown",
      "description": "Donation location - please contact for details",
      "state": "Kentucky",
      "stateSlug": "kentucky",
      "city": "Louisville",
      "address": "4839 Southside Dr, Louisville, KY 40221",
      "street": "4839 Southside Dr",
      "zip": "40221",
      "latitude": 38.17735125,
      "longitude": -85.76287213,
      "acceptedMaterials": [
        "Clothing",
        "Linen",
        "Shoes"
      ],
      "logo": "goodwill.jpg",
      "permalink": "https://www.clothedonations.com/kentucky/st-john-vianney-catholic-church/",
      "lastUpdated": "5/05/2025"
    },
    {
      "id": "26904",
      "title": "15th District PTA",
      "company": "Unknown",
      "description": "Donation location - please contact for details",
      "state": "Kentucky",
      "stateSlug": "kentucky",
      "city": "Louisville",
      "address": "1400 W Jefferson St, Louisville, KY 40221",
      "street": "1400 W Jefferson St",
      "zip": "40221",
      "latitude": 38.2553466,
      "longitude": -85.77401032,
      "acceptedMaterials": [
        "Clothing",
        "Linen",
        "Shoes"
      ],
      "logo": "goodwill.jpg",
      "permalink": "https://www.clothedonations.com/kentucky/15th-district-pta/",
      "lastUpdated": "5/05/2025"
    },
    {
      "id": "26905",
      "title": "National Council of Jewish Women, Louisville Section",
      "company": "Unknown",
      "description": "Donation location - please contact for details",
      "state": "Kentucky",
      "stateSlug": "kentucky",
      "city": "Louisville",
      "address": "1250 Bardstown Rd Suite 26, Louisville, KY 40221",
      "street": "1250 Bardstown Rd Suite 26",
      "zip": "40221",
      "latitude": 38.234783,
      "longitude": -85.71769136,
      "acceptedMaterials": [
        "Clothing",
        "Linen",
        "Shoes"
      ],
      "logo": "goodwill.jpg",
      "permalink": "https://www.clothedonations.com/kentucky/national-council-of-jewish-women,-louisville-section/",
      "lastUpdated": "5/05/2025"
    },
    {
      "id": "26906",
      "title": "Goodwill Attended Donation Center",
      "company": "Unknown",
      "description": "Donation location - please contact for details",
      "state": "Kentucky",
      "stateSlug": "kentucky",
      "city": "Louisville",
      "address": "9403 Westport Rd, Louisville, KY 40222",
      "street": "9403 Westport Rd",
      "zip": "40222",
      "latitude": 38.286465,
      "longitude": -85.576698,
      "acceptedMaterials": [
        "Clothing",
        "Linen",
        "Shoes"
      ],
      "logo": "goodwill.jpg",
      "permalink": "https://www.clothedonations.com/kentucky/goodwill-attended-donation-center/",
      "lastUpdated": "5/05/2025"
    },
    {
      "id": "26907",
      "title": "Goodwill",
      "company": "Unknown",
      "description": "Donation location - please contact for details",
      "state": "Kentucky",
      "stateSlug": "kentucky",
      "city": "Louisville",
      "address": "100 Huntington Ridge Dr, Louisville, KY 40223",
      "street": "100 Huntington Ridge Dr",
      "zip": "40223",
      "latitude": 38.241337,
      "longitude": -85.506982,
      "acceptedMaterials": [
        "Clothing",
        "Linen",
        "Shoes"
      ],
      "logo": "goodwill.jpg",
      "permalink": "https://www.clothedonations.com/kentucky/goodwill/",
      "lastUpdated": "5/05/2025"
    },
    {
      "id": "26908",
      "title": "Dorsey Plaza",
      "company": "Unknown",
      "description": "Donation location - please contact for details",
      "state": "Kentucky",
      "stateSlug": "kentucky",
      "city": "Louisville",
      "address": "10266 Shelbyville Rd, Louisville, KY 40223",
      "street": "10266 Shelbyville Rd",
      "zip": "40223",
      "latitude": 38.2450063,
      "longitude": -85.5642845,
      "acceptedMaterials": [
        "Clothing",
        "Linen",
        "Shoes"
      ],
      "logo": "goodwill.jpg",
      "permalink": "https://www.clothedonations.com/kentucky/dorsey-plaza/",
      "lastUpdated": "5/05/2025"
    },
    {
      "id": "26909",
      "title": "Blessing Box of First Baptist Church Middletown, KY",
      "company": "Unknown",
      "description": "Donation location - please contact for details",
      "state": "Kentucky",
      "stateSlug": "kentucky",
      "city": "Louisville",
      "address": "11717 Main St, Louisville, KY 40223",
      "street": "11717 Main St",
      "zip": "40223",
      "latitude": 38.24550879,
      "longitude": -85.53935892,
      "acceptedMaterials": [
        "Clothing",
        "Linen",
        "Shoes"
      ],
      "logo": "goodwill.jpg",
      "permalink": "https://www.clothedonations.com/kentucky/blessing-box-of-first-baptist-church-middletown,-ky/",
      "lastUpdated": "5/05/2025"
    },
    {
      "id": "26910",
      "title": "Operation Open Arms Inc",
      "company": "Unknown",
      "description": "Donation location - please contact for details",
      "state": "Kentucky",
      "stateSlug": "kentucky",
      "city": "Louisville",
      "address": "8918 Stone Green Way #100, Louisville, KY 40224",
      "street": "8918 Stone Green Way #100",
      "zip": "40224",
      "latitude": 38.214111,
      "longitude": -85.598499,
      "acceptedMaterials": [
        "Clothing",
        "Linen",
        "Shoes"
      ],
      "logo": "goodwill.jpg",
      "permalink": "https://www.clothedonations.com/kentucky/operation-open-arms-inc/",
      "lastUpdated": "5/05/2025"
    },
    {
      "id": "26911",
      "title": "Habitat for Humanity Louisville ReStore - Portland Neighborhood",
      "company": "Unknown",
      "description": "Donation location - please contact for details",
      "state": "Kentucky",
      "stateSlug": "kentucky",
      "city": "Louisville",
      "address": "1631 Rowan St, Louisville, KY 40225",
      "street": "1631 Rowan St",
      "zip": "40225",
      "latitude": 38.260552,
      "longitude": -85.7774986,
      "acceptedMaterials": [
        "Clothing",
        "Linen",
        "Shoes"
      ],
      "logo": "goodwill.jpg",
      "permalink": "https://www.clothedonations.com/kentucky/habitat-for-humanity-louisville-restore---portland-neighborhood/",
      "lastUpdated": "5/05/2025"
    },
    {
      "id": "26912",
      "title": "Goodwill Vehicle Donation and Auto Auction",
      "company": "Unknown",
      "description": "Donation location - please contact for details",
      "state": "Kentucky",
      "stateSlug": "kentucky",
      "city": "#N/A",
      "address": "Louisville, KY 40228",
      "street": "Louisville",
      "zip": "40228",
      "latitude": 38.13844735,
      "longitude": -85.62888051,
      "acceptedMaterials": [
        "Clothing",
        "Linen",
        "Shoes"
      ],
      "logo": "goodwill.jpg",
      "permalink": "https://www.clothedonations.com/kentucky/goodwill-vehicle-donation-and-auto-auction/",
      "lastUpdated": "5/05/2025"
    },
    {
      "id": "26913",
      "title": "Fern Creek Highview United Ministries - Food Distribution Center",
      "company": "Unknown",
      "description": "Donation location - please contact for details",
      "state": "Kentucky",
      "stateSlug": "kentucky",
      "city": "Louisville",
      "address": "9300 Beulah Church Rd, Louisville, KY 40228",
      "street": "9300 Beulah Church Rd",
      "zip": "40228",
      "latitude": 38.14853035,
      "longitude": -85.58955379,
      "acceptedMaterials": [
        "Clothing",
        "Linen",
        "Shoes"
      ],
      "logo": "goodwill.jpg",
      "permalink": "https://www.clothedonations.com/kentucky/fern-creek-highview-united-ministries---food-distribution-center/",
      "lastUpdated": "5/05/2025"
    },
    {
      "id": "26914",
      "title": "Tonini Church Supply Co",
      "company": "Unknown",
      "description": "Donation location - please contact for details",
      "state": "Kentucky",
      "stateSlug": "kentucky",
      "city": "#N/A",
      "address": "Louisville, KY 40228",
      "street": "Louisville",
      "zip": "40228",
      "latitude": 38.13844735,
      "longitude": -85.62888051,
      "acceptedMaterials": [
        "Clothing",
        "Linen",
        "Shoes"
      ],
      "logo": "goodwill.jpg",
      "permalink": "https://www.clothedonations.com/kentucky/tonini-church-supply-co/",
      "lastUpdated": "5/05/2025"
    },
    {
      "id": "26915",
      "title": "Once Upon A Child Louisville - Outer Loop",
      "company": "Unknown",
      "description": "Donation location - please contact for details",
      "state": "Kentucky",
      "stateSlug": "kentucky",
      "city": "#N/A",
      "address": "Louisville, KY 40228",
      "street": "Louisville",
      "zip": "40228",
      "latitude": 38.13844735,
      "longitude": -85.62888051,
      "acceptedMaterials": [
        "Clothing",
        "Linen",
        "Shoes"
      ],
      "logo": "goodwill.jpg",
      "permalink": "https://www.clothedonations.com/kentucky/once-upon-a-child-louisville---outer-loop/",
      "lastUpdated": "5/05/2025"
    },
    {
      "id": "26916",
      "title": "Outreach Thrift Shop",
      "company": "Unknown",
      "description": "Donation location - please contact for details",
      "state": "Kentucky",
      "stateSlug": "kentucky",
      "city": "Louisville",
      "address": "1975 Preston Hwy, Louisville, KY 40229",
      "street": "1975 Preston Hwy",
      "zip": "40229",
      "latitude": 38.07488079,
      "longitude": -85.66887542,
      "acceptedMaterials": [
        "Clothing",
        "Linen",
        "Shoes"
      ],
      "logo": "goodwill.jpg",
      "permalink": "https://www.clothedonations.com/kentucky/outreach-thrift-shop/",
      "lastUpdated": "5/05/2025"
    },
    {
      "id": "26917",
      "title": "Goodwill",
      "company": "Unknown",
      "description": "Donation location - please contact for details",
      "state": "Kentucky",
      "stateSlug": "kentucky",
      "city": "#N/A",
      "address": "Louisville, KY 40245",
      "street": "Louisville",
      "zip": "40245",
      "latitude": 38.26839771,
      "longitude": -85.48767111,
      "acceptedMaterials": [
        "Clothing",
        "Linen",
        "Shoes"
      ],
      "logo": "goodwill.jpg",
      "permalink": "https://www.clothedonations.com/kentucky/goodwill/",
      "lastUpdated": "5/05/2025"
    },
    {
      "id": "26918",
      "title": "Shirleys Deals Valley Station",
      "company": "Unknown",
      "description": "Donation location - please contact for details",
      "state": "Kentucky",
      "stateSlug": "kentucky",
      "city": "#N/A",
      "address": "Louisville, KY 40258",
      "street": "Louisville",
      "zip": "40258",
      "latitude": 38.14435808,
      "longitude": -85.86471809,
      "acceptedMaterials": [
        "Clothing",
        "Linen",
        "Shoes"
      ],
      "logo": "goodwill.jpg",
      "permalink": "https://www.clothedonations.com/kentucky/shirleys-deals-valley-station/",
      "lastUpdated": "5/05/2025"
    },
    {
      "id": "26919",
      "title": "The Louisville Dream Center",
      "company": "Unknown",
      "description": "Donation location - please contact for details",
      "state": "Kentucky",
      "stateSlug": "kentucky",
      "city": "Louisville",
      "address": "4413 E Pages Ln, Louisville, KY 40258",
      "street": "4413 E Pages Ln",
      "zip": "40258",
      "latitude": 38.12624,
      "longitude": -85.841885,
      "acceptedMaterials": [
        "Clothing",
        "Linen",
        "Shoes"
      ],
      "logo": "goodwill.jpg",
      "permalink": "https://www.clothedonations.com/kentucky/the-louisville-dream-center/",
      "lastUpdated": "5/05/2025"
    },
    {
      "id": "26920",
      "title": "Once Upon A Child Louisville - Dixie, KY",
      "company": "Unknown",
      "description": "Donation location - please contact for details",
      "state": "Kentucky",
      "stateSlug": "kentucky",
      "city": "#N/A",
      "address": "Louisville, KY 40258",
      "street": "Louisville",
      "zip": "40258",
      "latitude": 38.14435808,
      "longitude": -85.86471809,
      "acceptedMaterials": [
        "Clothing",
        "Linen",
        "Shoes"
      ],
      "logo": "goodwill.jpg",
      "permalink": "https://www.clothedonations.com/kentucky/once-upon-a-child-louisville---dixie,-ky/",
      "lastUpdated": "5/05/2025"
    },
    {
      "id": "26921",
      "title": "Exodus Family Ministries",
      "company": "Unknown",
      "description": "Donation location - please contact for details",
      "state": "Kentucky",
      "stateSlug": "kentucky",
      "city": "Louisville",
      "address": "6501 Bethany Ln, Louisville, KY 40258",
      "street": "6501 Bethany Ln",
      "zip": "40258",
      "latitude": 38.10054205,
      "longitude": -85.88291075,
      "acceptedMaterials": [
        "Clothing",
        "Linen",
        "Shoes"
      ],
      "logo": "goodwill.jpg",
      "permalink": "https://www.clothedonations.com/kentucky/exodus-family-ministries/",
      "lastUpdated": "5/05/2025"
    },
    {
      "id": "26922",
      "title": "Shirley's Way, Inc",
      "company": "Unknown",
      "description": "Donation location - please contact for details",
      "state": "Kentucky",
      "stateSlug": "kentucky",
      "city": "#N/A",
      "address": "Louisville, KY 40258",
      "street": "Louisville",
      "zip": "40258",
      "latitude": 38.14435808,
      "longitude": -85.86471809,
      "acceptedMaterials": [
        "Clothing",
        "Linen",
        "Shoes"
      ],
      "logo": "goodwill.jpg",
      "permalink": "https://www.clothedonations.com/kentucky/shirley's-way,-inc/",
      "lastUpdated": "5/05/2025"
    },
    {
      "id": "26923",
      "title": "Life Church - Food Distribution Center",
      "company": "Unknown",
      "description": "Donation location - please contact for details",
      "state": "Kentucky",
      "stateSlug": "kentucky",
      "city": "Louisville",
      "address": "4413 E Pages Ln, Louisville, KY 40258",
      "street": "4413 E Pages Ln",
      "zip": "40258",
      "latitude": 38.12624,
      "longitude": -85.841885,
      "acceptedMaterials": [
        "Clothing",
        "Linen",
        "Shoes"
      ],
      "logo": "goodwill.jpg",
      "permalink": "https://www.clothedonations.com/kentucky/life-church---food-distribution-center/",
      "lastUpdated": "5/05/2025"
    },
    {
      "id": "26924",
      "title": "Buff City Soap",
      "company": "Unknown",
      "description": "Donation location - please contact for details",
      "state": "Kentucky",
      "stateSlug": "kentucky",
      "city": "#N/A",
      "address": "Louisville, KY 40258",
      "street": "Louisville",
      "zip": "40258",
      "latitude": 38.14435808,
      "longitude": -85.86471809,
      "acceptedMaterials": [
        "Clothing",
        "Linen",
        "Shoes"
      ],
      "logo": "goodwill.jpg",
      "permalink": "https://www.clothedonations.com/kentucky/buff-city-soap/",
      "lastUpdated": "5/05/2025"
    },
    {
      "id": "26925",
      "title": "Goodwill Donation Center",
      "company": "Unknown",
      "description": "Donation location - please contact for details",
      "state": "Kentucky",
      "stateSlug": "kentucky",
      "city": "#N/A",
      "address": "Louisville, KY 40259",
      "street": "Louisville",
      "zip": "40259",
      "latitude": 38.2542376,
      "longitude": -85.759407,
      "acceptedMaterials": [
        "Clothing",
        "Linen",
        "Shoes"
      ],
      "logo": "goodwill.jpg",
      "permalink": "https://www.clothedonations.com/kentucky/goodwill-donation-center/",
      "lastUpdated": "5/05/2025"
    },
    {
      "id": "26926",
      "title": "Goodwill",
      "company": "Unknown",
      "description": "Donation location - please contact for details",
      "state": "Kentucky",
      "stateSlug": "kentucky",
      "city": "Louisville",
      "address": "513 Adam Shepherd Pkwy, Louisville, KY 40272",
      "street": "513 Adam Shepherd Pkwy",
      "zip": "40272",
      "latitude": 38.141177,
      "longitude": -85.776881,
      "acceptedMaterials": [
        "Clothing",
        "Linen",
        "Shoes"
      ],
      "logo": "goodwill.jpg",
      "permalink": "https://www.clothedonations.com/kentucky/goodwill/",
      "lastUpdated": "5/05/2025"
    },
    {
      "id": "26927",
      "title": "Re:Center Ministries",
      "company": "Unknown",
      "description": "Donation location - please contact for details",
      "state": "Kentucky",
      "stateSlug": "kentucky",
      "city": "Louisville",
      "address": "757 S Brook St, Louisville, KY 40283",
      "street": "757 S Brook St",
      "zip": "40283",
      "latitude": 38.2432725,
      "longitude": -85.75165969,
      "acceptedMaterials": [
        "Clothing",
        "Linen",
        "Shoes"
      ],
      "logo": "goodwill.jpg",
      "permalink": "https://www.clothedonations.com/kentucky/re:center-ministries/",
      "lastUpdated": "5/05/2025"
    },
    {
      "id": "26928",
      "title": "Goodwill",
      "company": "Unknown",
      "description": "Donation location - please contact for details",
      "state": "Kentucky",
      "stateSlug": "kentucky",
      "city": "Louisville",
      "address": "337 Oakbrooke Dr Ste 700, Louisville, KY 40291",
      "street": "337 Oakbrooke Dr Ste 700",
      "zip": "40291",
      "latitude": 38.0541234,
      "longitude": -85.5393659,
      "acceptedMaterials": [
        "Clothing",
        "Linen",
        "Shoes"
      ],
      "logo": "goodwill.jpg",
      "permalink": "https://www.clothedonations.com/kentucky/goodwill/",
      "lastUpdated": "5/05/2025"
    },
    {
      "id": "26929",
      "title": "Garden Commons",
      "company": "Unknown",
      "description": "Donation location - please contact for details",
      "state": "Kentucky",
      "stateSlug": "kentucky",
      "city": "#N/A",
      "address": "Louisville, KY 40292",
      "street": "Louisville",
      "zip": "40292",
      "latitude": 38.21429413,
      "longitude": -85.75900938,
      "acceptedMaterials": [
        "Clothing",
        "Linen",
        "Shoes"
      ],
      "logo": "goodwill.jpg",
      "permalink": "https://www.clothedonations.com/kentucky/garden-commons/",
      "lastUpdated": "5/05/2025"
    },
    {
      "id": "26930",
      "title": "University of Louisville Campus Store",
      "company": "Unknown",
      "description": "Donation location - please contact for details",
      "state": "Kentucky",
      "stateSlug": "kentucky",
      "city": "2100 S Floyd St",
      "address": "Swain Student Activities Center, 2100 S Floyd St, Louisville, KY 40292",
      "street": "Swain Student Activities Center",
      "zip": "40292",
      "latitude": 38.2176299,
      "longitude": -85.75522393,
      "acceptedMaterials": [
        "Clothing",
        "Linen",
        "Shoes"
      ],
      "logo": "goodwill.jpg",
      "permalink": "https://www.clothedonations.com/kentucky/university-of-louisville-campus-store/",
      "lastUpdated": "5/05/2025"
    },
    {
      "id": "26931",
      "title": "Jeffersontown Area Ministries - Food Distribution Center",
      "company": "Unknown",
      "description": "Donation location - please contact for details",
      "state": "Kentucky",
      "stateSlug": "kentucky",
      "city": "Jeffersontown",
      "address": "10617 Taylorsville Rd, Jeffersontown, KY 40299",
      "street": "10617 Taylorsville Rd",
      "zip": "40299",
      "latitude": 38.18991653,
      "longitude": -85.55900679,
      "acceptedMaterials": [
        "Clothing",
        "Linen",
        "Shoes"
      ],
      "logo": "goodwill.jpg",
      "permalink": "https://www.clothedonations.com/kentucky/jeffersontown-area-ministries---food-distribution-center/",
      "lastUpdated": "5/05/2025"
    },
    {
      "id": "26932",
      "title": "Down Syndrome of Louisville",
      "company": "Unknown",
      "description": "Donation location - please contact for details",
      "state": "Kentucky",
      "stateSlug": "kentucky",
      "city": "Jeffersontown",
      "address": "5001 S Hurstbourne Pkwy, Jeffersontown, KY 40299",
      "street": "5001 S Hurstbourne Pkwy",
      "zip": "40299",
      "latitude": 38.1744264,
      "longitude": -85.6051608,
      "acceptedMaterials": [
        "Clothing",
        "Linen",
        "Shoes"
      ],
      "logo": "goodwill.jpg",
      "permalink": "https://www.clothedonations.com/kentucky/down-syndrome-of-louisville/",
      "lastUpdated": "5/05/2025"
    }
  ]
}