{
  "name": "North Dakota",
  "slug": "north-dakota",
  "locations": [
    {
      "id": "14519",
      "title": "YWCA Charity - Fargo",
      "company": "YWCA Charity",
      "description": "Since the 1850s, the Young Women’s Christian Association (YWCA) USA has been advocating for the empowerment, leadership, and rights of women and girls in the United States.\n\nTo help fund their causes, they welcome financial donations, and some other items. If you're not sure whether they can accept your donation, please give them a call beforehand.",
      "state": "North Dakota",
      "stateSlug": "north-dakota",
      "city": "Fargo",
      "address": "1444 45th St S, Fargo, ND 58103, USA",
      "street": "45th Street South",
      "zip": "58104",
      "coordinates": {
        "lat": 46.858761,
        "lng": -96.860191
      },
      "acceptedMaterials": [
        "Accessories",
        "Books",
        "Clothing",
        "Linen"
      ],
      "logo": "ywca.jpg",
      "permalink": "https://www.clothedonations.com/north-dakota/ywca-charity-fargo/",
      "lastUpdated": "6/10/2024"
    },
    {
      "id": "14520",
      "title": "YWCA Charity - Fargo",
      "company": "YWCA Charity",
      "description": "Since the 1850s, the Young Women’s Christian Association (YWCA) USA has been advocating for the empowerment, leadership, and rights of women and girls in the United States.\n\nTo help fund their causes, they welcome financial donations, and some other items. If you're not sure whether they can accept your donation, please give them a call beforehand.",
      "state": "North Dakota",
      "stateSlug": "north-dakota",
      "city": "Unknown",
      "address": "1623 38th St SW, Fargo, ND 58103, USA",
      "street": "",
      "zip": "",
      "coordinates": {
        "lat": 46.856459,
        "lng": -96.84335
      },
      "acceptedMaterials": [
        "Accessories",
        "Books",
        "Clothing",
        "Linen"
      ],
      "logo": "ywca.jpg",
      "permalink": "https://www.clothedonations.com/north-dakota/ywca-charity-fargo-2/",
      "lastUpdated": "6/10/2024"
    },
    {
      "id": "14521",
      "title": "YWCA Charity - Fargo",
      "company": "YWCA Charity",
      "description": "Since the 1850s, the Young Women’s Christian Association (YWCA) USA has been advocating for the empowerment, leadership, and rights of women and girls in the United States.\n\nTo help fund their causes, they welcome financial donations, and some other items. If you're not sure whether they can accept your donation, please give them a call beforehand.",
      "state": "North Dakota",
      "stateSlug": "north-dakota",
      "city": "Fargo",
      "address": "3000 S University Dr, Fargo, ND 58103, USA",
      "street": "3000 South University Drive",
      "zip": "58103",
      "coordinates": {
        "lat": 46.834349,
        "lng": -96.797826
      },
      "acceptedMaterials": [
        "Accessories",
        "Books",
        "Clothing",
        "Linen"
      ],
      "logo": "ywca.jpg",
      "permalink": "https://www.clothedonations.com/north-dakota/ywca-charity-fargo-3/",
      "lastUpdated": "6/10/2024"
    },
    {
      "id": "14522",
      "title": "YWCA Charity - Fargo",
      "company": "YWCA Charity",
      "description": "Since the 1850s, the Young Women’s Christian Association (YWCA) USA has been advocating for the empowerment, leadership, and rights of women and girls in the United States.\n\nTo help fund their causes, they welcome financial donations, and some other items. If you're not sure whether they can accept your donation, please give them a call beforehand.",
      "state": "North Dakota",
      "stateSlug": "north-dakota",
      "city": "Fargo",
      "address": "3100 12th Ave N, Fargo, ND 58102, USA",
      "street": "3100 12th Avenue North",
      "zip": "58102",
      "coordinates": {
        "lat": 46.890169,
        "lng": -96.827468
      },
      "acceptedMaterials": [
        "Accessories",
        "Books",
        "Clothing",
        "Linen"
      ],
      "logo": "ywca.jpg",
      "permalink": "https://www.clothedonations.com/north-dakota/ywca-charity-fargo-4/",
      "lastUpdated": "6/10/2024"
    },
    {
      "id": "14523",
      "title": "YWCA Charity - Fargo",
      "company": "YWCA Charity",
      "description": "Since the 1850s, the Young Women’s Christian Association (YWCA) USA has been advocating for the empowerment, leadership, and rights of women and girls in the United States.\n\nTo help fund their causes, they welcome financial donations, and some other items. If you're not sure whether they can accept your donation, please give them a call beforehand.",
      "state": "North Dakota",
      "stateSlug": "north-dakota",
      "city": "Fargo",
      "address": "3100 25th St S, Fargo, ND 58103, USA",
      "street": "3100 25th Street South",
      "zip": "58104",
      "coordinates": {
        "lat": 46.833445,
        "lng": -96.819381
      },
      "acceptedMaterials": [
        "Accessories",
        "Books",
        "Clothing",
        "Linen"
      ],
      "logo": "ywca.jpg",
      "permalink": "https://www.clothedonations.com/north-dakota/ywca-charity-fargo-5/",
      "lastUpdated": "6/10/2024"
    },
    {
      "id": "14524",
      "title": "YWCA Charity - Fargo",
      "company": "YWCA Charity",
      "description": "Since the 1850s, the Young Women’s Christian Association (YWCA) USA has been advocating for the empowerment, leadership, and rights of women and girls in the United States.\n\nTo help fund their causes, they welcome financial donations, and some other items. If you're not sure whether they can accept your donation, please give them a call beforehand.",
      "state": "North Dakota",
      "stateSlug": "north-dakota",
      "city": "Fargo",
      "address": "3500 12th Ave N, Fargo, ND 58102, USA",
      "street": "3500 12th Avenue North",
      "zip": "58102",
      "coordinates": {
        "lat": 46.889322,
        "lng": -96.83591
      },
      "acceptedMaterials": [
        "Accessories",
        "Books",
        "Clothing",
        "Linen"
      ],
      "logo": "ywca.jpg",
      "permalink": "https://www.clothedonations.com/north-dakota/ywca-charity-fargo-6/",
      "lastUpdated": "6/10/2024"
    },
    {
      "id": "14525",
      "title": "YWCA Charity - Fargo",
      "company": "YWCA Charity",
      "description": "Since the 1850s, the Young Women’s Christian Association (YWCA) USA has been advocating for the empowerment, leadership, and rights of women and girls in the United States.\n\nTo help fund their causes, they welcome financial donations, and some other items. If you're not sure whether they can accept your donation, please give them a call beforehand.",
      "state": "North Dakota",
      "stateSlug": "north-dakota",
      "city": "Fargo",
      "address": "3800 51st Ave S, Fargo, ND 58104, USA",
      "street": "51st Avenue South",
      "zip": "58104",
      "coordinates": {
        "lat": 46.805451,
        "lng": -96.846721
      },
      "acceptedMaterials": [
        "Accessories",
        "Books",
        "Clothing",
        "Linen"
      ],
      "logo": "ywca.jpg",
      "permalink": "https://www.clothedonations.com/north-dakota/ywca-charity-fargo-7/",
      "lastUpdated": "6/10/2024"
    },
    {
      "id": "14526",
      "title": "YWCA Charity - Fargo",
      "company": "YWCA Charity",
      "description": "Since the 1850s, the Young Women’s Christian Association (YWCA) USA has been advocating for the empowerment, leadership, and rights of women and girls in the United States.\n\nTo help fund their causes, they welcome financial donations, and some other items. If you're not sure whether they can accept your donation, please give them a call beforehand.",
      "state": "North Dakota",
      "stateSlug": "north-dakota",
      "city": "Fargo",
      "address": "4451 40th Ave S, Fargo, ND 58104, USA",
      "street": "4451 40th Avenue South",
      "zip": "58104",
      "coordinates": {
        "lat": 46.819315,
        "lng": -96.859228
      },
      "acceptedMaterials": [
        "Accessories",
        "Books",
        "Clothing",
        "Linen"
      ],
      "logo": "ywca.jpg",
      "permalink": "https://www.clothedonations.com/north-dakota/ywca-charity-fargo-8/",
      "lastUpdated": "6/10/2024"
    },
    {
      "id": "14527",
      "title": "YWCA Charity - Fargo",
      "company": "YWCA Charity",
      "description": "Since the 1850s, the Young Women’s Christian Association (YWCA) USA has been advocating for the empowerment, leadership, and rights of women and girls in the United States.\n\nTo help fund their causes, they welcome financial donations, and some other items. If you're not sure whether they can accept your donation, please give them a call beforehand.",
      "state": "North Dakota",
      "stateSlug": "north-dakota",
      "city": "Fargo",
      "address": "4510 13th Ave S, Fargo, ND 58103, USA",
      "street": "4510 13th Avenue South",
      "zip": "58103",
      "coordinates": {
        "lat": 46.860687,
        "lng": -96.863693
      },
      "acceptedMaterials": [
        "Accessories",
        "Books",
        "Clothing",
        "Linen"
      ],
      "logo": "ywca.jpg",
      "permalink": "https://www.clothedonations.com/north-dakota/ywca-charity-fargo-9/",
      "lastUpdated": "6/10/2024"
    },
    {
      "id": "14528",
      "title": "YWCA Charity - Fargo",
      "company": "YWCA Charity",
      "description": "Since the 1850s, the Young Women’s Christian Association (YWCA) USA has been advocating for the empowerment, leadership, and rights of women and girls in the United States.\n\nTo help fund their causes, they welcome financial donations, and some other items. If you're not sure whether they can accept your donation, please give them a call beforehand.",
      "state": "North Dakota",
      "stateSlug": "north-dakota",
      "city": "Unknown",
      "address": "4907 Timber Pkwy S, Fargo, ND 58104, USA",
      "street": "",
      "zip": "",
      "coordinates": {
        "lat": 46.806702,
        "lng": -96.831258
      },
      "acceptedMaterials": [
        "Accessories",
        "Books",
        "Clothing",
        "Linen"
      ],
      "logo": "ywca.jpg",
      "permalink": "https://www.clothedonations.com/north-dakota/ywca-charity-fargo-10/",
      "lastUpdated": "6/10/2024"
    },
    {
      "id": "14529",
      "title": "YWCA Charity - Fargo",
      "company": "YWCA Charity",
      "description": "Since the 1850s, the Young Women’s Christian Association (YWCA) USA has been advocating for the empowerment, leadership, and rights of women and girls in the United States.\n\nTo help fund their causes, they welcome financial donations, and some other items. If you're not sure whether they can accept your donation, please give them a call beforehand.",
      "state": "North Dakota",
      "stateSlug": "north-dakota",
      "city": "Fargo",
      "address": "700 7th St S, Fargo, ND 58103, USA",
      "street": "700 7th Street South",
      "zip": "58103",
      "coordinates": {
        "lat": 46.867577,
        "lng": -96.789631
      },
      "acceptedMaterials": [
        "Accessories",
        "Books",
        "Clothing",
        "Linen"
      ],
      "logo": "ywca.jpg",
      "permalink": "https://www.clothedonations.com/north-dakota/ywca-charity-fargo-11/",
      "lastUpdated": "6/10/2024"
    },
    {
      "id": "14530",
      "title": "YWCA Charity - Fargo",
      "company": "YWCA Charity",
      "description": "Since the 1850s, the Young Women’s Christian Association (YWCA) USA has been advocating for the empowerment, leadership, and rights of women and girls in the United States.\n\nTo help fund their causes, they welcome financial donations, and some other items. If you're not sure whether they can accept your donation, please give them a call beforehand.",
      "state": "North Dakota",
      "stateSlug": "north-dakota",
      "city": "Bellevue",
      "address": "170th Ave SE, Washington, USA",
      "street": "170th Avenue Southeast",
      "zip": "99007",
      "coordinates": {
        "lat": 47.564938,
        "lng": -122.1131
      },
      "acceptedMaterials": [
        "Accessories",
        "Books",
        "Clothing",
        "Linen"
      ],
      "logo": "ywca.jpg",
      "permalink": "https://www.clothedonations.com/north-dakota/ywca-charity-fargo-12/",
      "lastUpdated": "6/10/2024"
    },
    {
      "id": "14531",
      "title": "YWCA Charity - Moorhead",
      "company": "YWCA Charity",
      "description": "Since the 1850s, the Young Women’s Christian Association (YWCA) USA has been advocating for the empowerment, leadership, and rights of women and girls in the United States.\n\nTo help fund their causes, they welcome financial donations, and some other items. If you're not sure whether they can accept your donation, please give them a call beforehand.",
      "state": "North Dakota",
      "stateSlug": "north-dakota",
      "city": "Unknown",
      "address": "210 7th St S, Moorhead, MN 56560, USA",
      "street": "210 7th Street South",
      "zip": "56560",
      "coordinates": {
        "lat": 46.872397,
        "lng": -96.768823
      },
      "acceptedMaterials": [
        "Accessories",
        "Books",
        "Clothing",
        "Linen"
      ],
      "logo": "ywca.jpg",
      "permalink": "https://www.clothedonations.com/north-dakota/ywca-charity-moorhead/",
      "lastUpdated": "6/10/2024"
    },
    {
      "id": "14532",
      "title": "YWCA Charity - Moorhead",
      "company": "YWCA Charity",
      "description": "Since the 1850s, the Young Women’s Christian Association (YWCA) USA has been advocating for the empowerment, leadership, and rights of women and girls in the United States.\n\nTo help fund their causes, they welcome financial donations, and some other items. If you're not sure whether they can accept your donation, please give them a call beforehand.",
      "state": "North Dakota",
      "stateSlug": "north-dakota",
      "city": "Unknown",
      "address": "2929 20th St, Moorhead, MN 56560, USA",
      "street": "2929 20th Street",
      "zip": "56560",
      "coordinates": {
        "lat": 46.844355,
        "lng": -96.748293
      },
      "acceptedMaterials": [
        "Accessories",
        "Books",
        "Clothing",
        "Linen"
      ],
      "logo": "ywca.jpg",
      "permalink": "https://www.clothedonations.com/north-dakota/ywca-charity-moorhead-2/",
      "lastUpdated": "6/10/2024"
    },
    {
      "id": "14533",
      "title": "YWCA Charity - West Fargo",
      "company": "YWCA Charity",
      "description": "Since the 1850s, the Young Women’s Christian Association (YWCA) USA has been advocating for the empowerment, leadership, and rights of women and girls in the United States.\n\nTo help fund their causes, they welcome financial donations, and some other items. If you're not sure whether they can accept your donation, please give them a call beforehand.",
      "state": "North Dakota",
      "stateSlug": "north-dakota",
      "city": "Unknown",
      "address": "110 Sheyenne St, West Fargo, ND 58078, USA",
      "street": "110 Sheyenne Street",
      "zip": "58078",
      "coordinates": {
        "lat": 46.875275,
        "lng": -96.904986
      },
      "acceptedMaterials": [
        "Accessories",
        "Books",
        "Clothing",
        "Linen"
      ],
      "logo": "ywca.jpg",
      "permalink": "https://www.clothedonations.com/north-dakota/ywca-charity-west-fargo/",
      "lastUpdated": "6/10/2024"
    },
    {
      "id": "14534",
      "title": "YWCA Charity - West Fargo",
      "company": "YWCA Charity",
      "description": "Since the 1850s, the Young Women’s Christian Association (YWCA) USA has been advocating for the empowerment, leadership, and rights of women and girls in the United States.\n\nTo help fund their causes, they welcome financial donations, and some other items. If you're not sure whether they can accept your donation, please give them a call beforehand.",
      "state": "North Dakota",
      "stateSlug": "north-dakota",
      "city": "Unknown",
      "address": "1402 16th St E, West Fargo, ND 58078, USA",
      "street": "1402 16th Street East",
      "zip": "58078",
      "coordinates": {
        "lat": 46.860431,
        "lng": -96.874333
      },
      "acceptedMaterials": [
        "Accessories",
        "Books",
        "Clothing",
        "Linen"
      ],
      "logo": "ywca.jpg",
      "permalink": "https://www.clothedonations.com/north-dakota/ywca-charity-west-fargo-2/",
      "lastUpdated": "6/10/2024"
    },
    {
      "id": "14535",
      "title": "YWCA Charity - West Fargo",
      "company": "YWCA Charity",
      "description": "Since the 1850s, the Young Women’s Christian Association (YWCA) USA has been advocating for the empowerment, leadership, and rights of women and girls in the United States.\n\nTo help fund their causes, they welcome financial donations, and some other items. If you're not sure whether they can accept your donation, please give them a call beforehand.",
      "state": "North Dakota",
      "stateSlug": "north-dakota",
      "city": "Unknown",
      "address": "755 33rd Ave E, West Fargo, ND 58078, USA",
      "street": "755 33rd Avenue East",
      "zip": "58078",
      "coordinates": {
        "lat": 46.831525,
        "lng": -96.885605
      },
      "acceptedMaterials": [
        "Accessories",
        "Books",
        "Clothing",
        "Linen"
      ],
      "logo": "ywca.jpg",
      "permalink": "https://www.clothedonations.com/north-dakota/ywca-charity-west-fargo-3/",
      "lastUpdated": "6/10/2024"
    },
    {
      "id": "18103",
      "title": "Salvation Army - Grand Forks",
      "company": "Salvation Army",
      "description": "The Salvation Army was founded in London in 1865. Since then it has grown into a global charitable organization, currently serving in 130 countries.\n\nFinancial donations are more than welcome, but they also accept goods such as clothing, houseware, home appliances, furniture, and others. If you're not sure whether they can accept your donation, please give them a call beforehand.",
      "state": "North Dakota",
      "stateSlug": "north-dakota",
      "city": "Grand Forks",
      "address": "3401 S 31st St, Grand Forks, ND 58201, USA",
      "street": "3401 South 31st Street",
      "zip": "58201",
      "coordinates": {
        "lat": 47.88765,
        "lng": -97.072781
      },
      "acceptedMaterials": [
        "Appliances",
        "Clothing",
        "Furniture",
        "Homewares"
      ],
      "logo": "salvation-army.jpg",
      "permalink": "https://www.clothedonations.com/north-dakota/salvation-army-grand-forks/",
      "lastUpdated": "7/10/2024"
    },
    {
      "id": "18215",
      "title": "Salvation Army - Jamestown",
      "company": "Salvation Army",
      "description": "The Salvation Army was founded in London in 1865. Since then it has grown into a global charitable organization, currently serving in 130 countries.\n\nFinancial donations are more than welcome, but they also accept goods such as clothing, houseware, home appliances, furniture, and others. If you're not sure whether they can accept your donation, please give them a call beforehand.",
      "state": "North Dakota",
      "stateSlug": "north-dakota",
      "city": "Jamestown",
      "address": "Jamestown, ND, USA",
      "street": "",
      "zip": "",
      "coordinates": {
        "lat": 46.910544,
        "lng": -98.708436
      },
      "acceptedMaterials": [
        "Appliances",
        "Clothing",
        "Furniture",
        "Homewares"
      ],
      "logo": "salvation-army.jpg",
      "permalink": "https://www.clothedonations.com/north-dakota/salvation-army-jamestown/",
      "lastUpdated": "7/10/2024"
    },
    {
      "id": "18406",
      "title": "Salvation Army - Minot",
      "company": "Salvation Army",
      "description": "The Salvation Army was founded in London in 1865. Since then it has grown into a global charitable organization, currently serving in 130 countries.\n\nFinancial donations are more than welcome, but they also accept goods such as clothing, houseware, home appliances, furniture, and others. If you're not sure whether they can accept your donation, please give them a call beforehand.",
      "state": "North Dakota",
      "stateSlug": "north-dakota",
      "city": "Minot",
      "address": "1933 S Broadway, Minot, ND 58701, USA",
      "street": "1933 South Broadway",
      "zip": "58701",
      "coordinates": {
        "lat": 48.211314,
        "lng": -101.295591
      },
      "acceptedMaterials": [
        "Appliances",
        "Clothing",
        "Furniture",
        "Homewares"
      ],
      "logo": "salvation-army.jpg",
      "permalink": "https://www.clothedonations.com/north-dakota/salvation-army-minot/",
      "lastUpdated": "7/10/2024"
    },
    {
      "id": "19679",
      "title": "Goodwill - Bismark",
      "company": "Goodwill",
      "description": "Goodwill is a non-profit organization that initiates community-based programs related to gainful employment. It was founded in 1902 in Boston.\n\nThe accept financial donations, as well as clothing and household items in usable condition. If you're not sure whether they can accept your donation, please give them a call beforehand.",
      "state": "North Dakota",
      "stateSlug": "north-dakota",
      "city": "Bismarck",
      "address": "421 S 3rd St, Bismarck, ND 58504, USA",
      "street": "421 South 3rd Street",
      "zip": "58501",
      "coordinates": {
        "lat": 46.801354,
        "lng": -100.787265
      },
      "acceptedMaterials": [
        "Clothing",
        "Furniture",
        "Homewares"
      ],
      "logo": "goodwill.jpg",
      "permalink": "https://www.clothedonations.com/north-dakota/goodwill-bismark/",
      "lastUpdated": "7/10/2024"
    },
    {
      "id": "20150",
      "title": "Goodwill - Fargo",
      "company": "Goodwill",
      "description": "Goodwill is a non-profit organization that initiates community-based programs related to gainful employment. It was founded in 1902 in Boston.\n\nThe accept financial donations, as well as clothing and household items in usable condition. If you're not sure whether they can accept your donation, please give them a call beforehand.",
      "state": "North Dakota",
      "stateSlug": "north-dakota",
      "city": "Unknown",
      "address": "1525 32nd Ave S, Fargo, ND 58103, USA",
      "street": "32nd Avenue East",
      "zip": "58122",
      "coordinates": {
        "lat": 46.833223,
        "lng": -96.80397
      },
      "acceptedMaterials": [
        "Clothing",
        "Furniture",
        "Homewares"
      ],
      "logo": "goodwill.jpg",
      "permalink": "https://www.clothedonations.com/north-dakota/goodwill-fargo/",
      "lastUpdated": "7/10/2024"
    },
    {
      "id": "20151",
      "title": "Goodwill - Fargo",
      "company": "Goodwill",
      "description": "Goodwill is a non-profit organization that initiates community-based programs related to gainful employment. It was founded in 1902 in Boston.\n\nThe accept financial donations, as well as clothing and household items in usable condition. If you're not sure whether they can accept your donation, please give them a call beforehand.",
      "state": "North Dakota",
      "stateSlug": "north-dakota",
      "city": "Unknown",
      "address": "4325 13th Ave S Suite #1, Fargo, ND 58103, USA",
      "street": "",
      "zip": "",
      "coordinates": {
        "lat": 46.862787,
        "lng": -96.856154
      },
      "acceptedMaterials": [
        "Clothing",
        "Furniture",
        "Homewares"
      ],
      "logo": "goodwill.jpg",
      "permalink": "https://www.clothedonations.com/north-dakota/goodwill-fargo-2/",
      "lastUpdated": "7/10/2024"
    },
    {
      "id": "20266",
      "title": "Goodwill - Grand Forks",
      "company": "Goodwill",
      "description": "Goodwill is a non-profit organization that initiates community-based programs related to gainful employment. It was founded in 1902 in Boston.\n\nThe accept financial donations, as well as clothing and household items in usable condition. If you're not sure whether they can accept your donation, please give them a call beforehand.",
      "state": "North Dakota",
      "stateSlug": "north-dakota",
      "city": "Grand Forks",
      "address": "3651 S Washington St, Grand Forks, ND 58201, USA",
      "street": "3651 South Washington Street",
      "zip": "58201",
      "coordinates": {
        "lat": 47.885171,
        "lng": -97.044361
      },
      "acceptedMaterials": [
        "Clothing",
        "Furniture",
        "Homewares"
      ],
      "logo": "goodwill.jpg",
      "permalink": "https://www.clothedonations.com/north-dakota/goodwill-grand-forks/",
      "lastUpdated": "7/10/2024"
    },
    {
      "id": "20512",
      "title": "Goodwill - Jamestown",
      "company": "Goodwill",
      "description": "Goodwill is a non-profit organization that initiates community-based programs related to gainful employment. It was founded in 1902 in Boston.\n\nThe accept financial donations, as well as clothing and household items in usable condition. If you're not sure whether they can accept your donation, please give them a call beforehand.",
      "state": "North Dakota",
      "stateSlug": "north-dakota",
      "city": "Unknown",
      "address": "2629 8th Ave SW, Jamestown, ND 58401, USA",
      "street": "2629 8th Avenue Southwest",
      "zip": "58401",
      "coordinates": {
        "lat": 46.879623,
        "lng": -98.718221
      },
      "acceptedMaterials": [
        "Clothing",
        "Furniture",
        "Homewares"
      ],
      "logo": "goodwill.jpg",
      "permalink": "https://www.clothedonations.com/north-dakota/goodwill-jamestown/",
      "lastUpdated": "7/10/2024"
    },
    {
      "id": "20915",
      "title": "Goodwill - Minot",
      "company": "Goodwill",
      "description": "Goodwill is a non-profit organization that initiates community-based programs related to gainful employment. It was founded in 1902 in Boston.\n\nThe accept financial donations, as well as clothing and household items in usable condition. If you're not sure whether they can accept your donation, please give them a call beforehand.",
      "state": "North Dakota",
      "stateSlug": "north-dakota",
      "city": "Minot",
      "address": "1405 S Broadway, Minot, ND 58701, USA",
      "street": "1405 South Broadway",
      "zip": "58701",
      "coordinates": {
        "lat": 48.22157,
        "lng": -101.29553
      },
      "acceptedMaterials": [
        "Clothing",
        "Furniture",
        "Homewares"
      ],
      "logo": "goodwill.jpg",
      "permalink": "https://www.clothedonations.com/north-dakota/goodwill-minot/",
      "lastUpdated": "7/10/2024"
    }
  ]
}