{
  "name": "South Carolina",
  "slug": "south-carolina",
  "locations": [
    {
      "id": "15009",
      "title": "My Sisters House - Charleston",
      "company": "My Sisters House",
      "description": "My Sister’s House was established as a non-profit organization in 2001. Its primary objective is to provide aid to Asian and Pacific Islander women and children, as well as women and children from underserved sectors in Sacramento and neighboring areas in California.\n\nThey encourage donations of clothes, houseware, hygiene products, and office supplies. If you're not sure whether they can accept your donation, please give them a call beforehand.",
      "state": "South Carolina",
      "stateSlug": "south-carolina",
      "city": "Charleston",
      "address": "1632 Fort Johnson Rd, Charleston, SC 29412, USA",
      "street": "1632 Fort Johnson Road",
      "zip": "29412",
      "coordinates": {
        "lat": 32.718214,
        "lng": -79.964427
      },
      "acceptedMaterials": [
        "Accessories",
        "Clothing",
        "Linen"
      ],
      "logo": "goodwill.jpg",
      "permalink": "https://www.clothedonations.com/south-carolina/my-sisters-house-charleston/",
      "lastUpdated": "6/10/2024"
    },
    {
      "id": "15010",
      "title": "My Sisters House - Charleston",
      "company": "My Sisters House",
      "description": "My Sister’s House was established as a non-profit organization in 2001. Its primary objective is to provide aid to Asian and Pacific Islander women and children, as well as women and children from underserved sectors in Sacramento and neighboring areas in California.\n\nThey encourage donations of clothes, houseware, hygiene products, and office supplies. If you're not sure whether they can accept your donation, please give them a call beforehand.",
      "state": "South Carolina",
      "stateSlug": "south-carolina",
      "city": "Charleston",
      "address": "1872 Camp Rd, Charleston, SC 29412, USA",
      "street": "1872 Camp Road",
      "zip": "29412",
      "coordinates": {
        "lat": 32.735835,
        "lng": -79.976139
      },
      "acceptedMaterials": [
        "Accessories",
        "Clothing",
        "Linen"
      ],
      "logo": "goodwill.jpg",
      "permalink": "https://www.clothedonations.com/south-carolina/my-sisters-house-charleston-2/",
      "lastUpdated": "6/10/2024"
    },
    {
      "id": "15011",
      "title": "My Sisters House - Charleston",
      "company": "My Sisters House",
      "description": "My Sister’s House was established as a non-profit organization in 2001. Its primary objective is to provide aid to Asian and Pacific Islander women and children, as well as women and children from underserved sectors in Sacramento and neighboring areas in California.\n\nThey encourage donations of clothes, houseware, hygiene products, and office supplies. If you're not sure whether they can accept your donation, please give them a call beforehand.",
      "state": "South Carolina",
      "stateSlug": "south-carolina",
      "city": "Charleston",
      "address": "1945 Bees Ferry Rd, Charleston, SC 29414, USA",
      "street": "1945 Bees Ferry Road",
      "zip": "29414",
      "coordinates": {
        "lat": 32.82968,
        "lng": -80.072666
      },
      "acceptedMaterials": [
        "Accessories",
        "Clothing",
        "Linen"
      ],
      "logo": "goodwill.jpg",
      "permalink": "https://www.clothedonations.com/south-carolina/my-sisters-house-charleston-3/",
      "lastUpdated": "6/10/2024"
    },
    {
      "id": "15012",
      "title": "My Sisters House - Charleston",
      "company": "My Sisters House",
      "description": "My Sister’s House was established as a non-profit organization in 2001. Its primary objective is to provide aid to Asian and Pacific Islander women and children, as well as women and children from underserved sectors in Sacramento and neighboring areas in California.\n\nThey encourage donations of clothes, houseware, hygiene products, and office supplies. If you're not sure whether they can accept your donation, please give them a call beforehand.",
      "state": "South Carolina",
      "stateSlug": "south-carolina",
      "city": "Charleston",
      "address": "2011 Bees Ferry Rd, Charleston, SC 29414, USA",
      "street": "2011 Bees Ferry Road",
      "zip": "29414",
      "coordinates": {
        "lat": 32.831897,
        "lng": -80.070242
      },
      "acceptedMaterials": [
        "Accessories",
        "Clothing",
        "Linen"
      ],
      "logo": "goodwill.jpg",
      "permalink": "https://www.clothedonations.com/south-carolina/my-sisters-house-charleston-4/",
      "lastUpdated": "6/10/2024"
    },
    {
      "id": "15013",
      "title": "My Sisters House - Mt. Pleasant",
      "company": "My Sisters House",
      "description": "My Sister’s House was established as a non-profit organization in 2001. Its primary objective is to provide aid to Asian and Pacific Islander women and children, as well as women and children from underserved sectors in Sacramento and neighboring areas in California.\n\nThey encourage donations of clothes, houseware, hygiene products, and office supplies. If you're not sure whether they can accept your donation, please give them a call beforehand.",
      "state": "South Carolina",
      "stateSlug": "south-carolina",
      "city": "Unknown",
      "address": "2304 N Hwy 17, Mt Pleasant, SC 29466, USA",
      "street": "North Highway 17",
      "zip": "29466",
      "coordinates": {
        "lat": 32.844569,
        "lng": -79.813451
      },
      "acceptedMaterials": [
        "Accessories",
        "Clothing",
        "Linen"
      ],
      "logo": "goodwill.jpg",
      "permalink": "https://www.clothedonations.com/south-carolina/my-sisters-house-mt-pleasant/",
      "lastUpdated": "6/10/2024"
    },
    {
      "id": "15014",
      "title": "My Sisters House - Charleston",
      "company": "My Sisters House",
      "description": "My Sister’s House was established as a non-profit organization in 2001. Its primary objective is to provide aid to Asian and Pacific Islander women and children, as well as women and children from underserved sectors in Sacramento and neighboring areas in California.\n\nThey encourage donations of clothes, houseware, hygiene products, and office supplies. If you're not sure whether they can accept your donation, please give them a call beforehand.",
      "state": "South Carolina",
      "stateSlug": "south-carolina",
      "city": "North Charleston",
      "address": "1150 E Montague Ave, North Charleston, SC 29405, USA",
      "street": "1150 East Montague Avenue",
      "zip": "29405",
      "coordinates": {
        "lat": 32.881748,
        "lng": -79.982725
      },
      "acceptedMaterials": [
        "Accessories",
        "Clothing",
        "Linen"
      ],
      "logo": "goodwill.jpg",
      "permalink": "https://www.clothedonations.com/south-carolina/my-sisters-house-charleston-5/",
      "lastUpdated": "6/10/2024"
    },
    {
      "id": "15015",
      "title": "My Sisters House - Charleston",
      "company": "My Sisters House",
      "description": "My Sister’s House was established as a non-profit organization in 2001. Its primary objective is to provide aid to Asian and Pacific Islander women and children, as well as women and children from underserved sectors in Sacramento and neighboring areas in California.\n\nThey encourage donations of clothes, houseware, hygiene products, and office supplies. If you're not sure whether they can accept your donation, please give them a call beforehand.",
      "state": "South Carolina",
      "stateSlug": "south-carolina",
      "city": "North Charleston",
      "address": "3775 Spruill Ave, North Charleston, SC 29405, USA",
      "street": "3775 Spruill Avenue",
      "zip": "29405",
      "coordinates": {
        "lat": 32.862079,
        "lng": -79.97911
      },
      "acceptedMaterials": [
        "Accessories",
        "Clothing",
        "Linen"
      ],
      "logo": "goodwill.jpg",
      "permalink": "https://www.clothedonations.com/south-carolina/my-sisters-house-charleston-6/",
      "lastUpdated": "6/10/2024"
    },
    {
      "id": "15016",
      "title": "My Sisters House - Summerville",
      "company": "My Sisters House",
      "description": "My Sister’s House was established as a non-profit organization in 2001. Its primary objective is to provide aid to Asian and Pacific Islander women and children, as well as women and children from underserved sectors in Sacramento and neighboring areas in California.\n\nThey encourage donations of clothes, houseware, hygiene products, and office supplies. If you're not sure whether they can accept your donation, please give them a call beforehand.",
      "state": "South Carolina",
      "stateSlug": "south-carolina",
      "city": "Summerville",
      "address": "10290 Dorchester Rd, Summerville, SC 29485, USA",
      "street": "Dorchester Road",
      "zip": "29485",
      "coordinates": {
        "lat": 32.954123,
        "lng": -80.175337
      },
      "acceptedMaterials": [
        "Accessories",
        "Clothing",
        "Linen"
      ],
      "logo": "goodwill.jpg",
      "permalink": "https://www.clothedonations.com/south-carolina/my-sisters-house-summerville/",
      "lastUpdated": "6/10/2024"
    },
    {
      "id": "15017",
      "title": "My Sisters House - Summerville",
      "company": "My Sisters House",
      "description": "My Sister’s House was established as a non-profit organization in 2001. Its primary objective is to provide aid to Asian and Pacific Islander women and children, as well as women and children from underserved sectors in Sacramento and neighboring areas in California.\n\nThey encourage donations of clothes, houseware, hygiene products, and office supplies. If you're not sure whether they can accept your donation, please give them a call beforehand.",
      "state": "South Carolina",
      "stateSlug": "south-carolina",
      "city": "Summerville",
      "address": "407 S Laurel St, Summerville, SC 29483, USA",
      "street": "407 South Laurel Street",
      "zip": "29483",
      "coordinates": {
        "lat": 33.017896,
        "lng": -80.18197
      },
      "acceptedMaterials": [
        "Accessories",
        "Clothing",
        "Linen"
      ],
      "logo": "goodwill.jpg",
      "permalink": "https://www.clothedonations.com/south-carolina/my-sisters-house-summerville-2/",
      "lastUpdated": "6/10/2024"
    },
    {
      "id": "17885",
      "title": "Salvation Army - Clover",
      "company": "Salvation Army",
      "description": "The Salvation Army was founded in London in 1865. Since then it has grown into a global charitable organization, currently serving in 130 countries.\n\nFinancial donations are more than welcome, but they also accept goods such as clothing, houseware, home appliances, furniture, and others. If you're not sure whether they can accept your donation, please give them a call beforehand.",
      "state": "South Carolina",
      "stateSlug": "south-carolina",
      "city": "Unknown",
      "address": "114 Kings Mountain St, Clover, SC 29710, USA",
      "street": "114 Kings Mountain Street",
      "zip": "29710",
      "coordinates": {
        "lat": 35.111915,
        "lng": -81.227034
      },
      "acceptedMaterials": [
        "Appliances",
        "Clothing",
        "Furniture",
        "Homewares"
      ],
      "logo": "salvation-army.jpg",
      "permalink": "https://www.clothedonations.com/south-carolina/salvation-army-clover/",
      "lastUpdated": "7/10/2024"
    },
    {
      "id": "18682",
      "title": "Salvation Army - Rock Hill",
      "company": "Salvation Army",
      "description": "The Salvation Army was founded in London in 1865. Since then it has grown into a global charitable organization, currently serving in 130 countries.\n\nFinancial donations are more than welcome, but they also accept goods such as clothing, houseware, home appliances, furniture, and others. If you're not sure whether they can accept your donation, please give them a call beforehand.",
      "state": "South Carolina",
      "stateSlug": "south-carolina",
      "city": "Rock Hill",
      "address": "2301 Dave Lyle Blvd, Rock Hill, SC 29730, USA",
      "street": "Dave Lyle Boulevard",
      "zip": "29730",
      "coordinates": {
        "lat": 34.943372,
        "lng": -80.965521
      },
      "acceptedMaterials": [
        "Appliances",
        "Clothing",
        "Furniture",
        "Homewares"
      ],
      "logo": "salvation-army.jpg",
      "permalink": "https://www.clothedonations.com/south-carolina/salvation-army-rock-hill/",
      "lastUpdated": "7/10/2024"
    },
    {
      "id": "19006",
      "title": "Salvation Army - York",
      "company": "Salvation Army",
      "description": "The Salvation Army was founded in London in 1865. Since then it has grown into a global charitable organization, currently serving in 130 countries.\n\nFinancial donations are more than welcome, but they also accept goods such as clothing, houseware, home appliances, furniture, and others. If you're not sure whether they can accept your donation, please give them a call beforehand.",
      "state": "South Carolina",
      "stateSlug": "south-carolina",
      "city": "Unknown",
      "address": "5780 Allison Creek Rd, York, SC 29745, USA",
      "street": "5780 Allison Creek Road",
      "zip": "29745",
      "coordinates": {
        "lat": 35.040501,
        "lng": -81.101937
      },
      "acceptedMaterials": [
        "Appliances",
        "Clothing",
        "Furniture",
        "Homewares"
      ],
      "logo": "salvation-army.jpg",
      "permalink": "https://www.clothedonations.com/south-carolina/salvation-army-york-9/",
      "lastUpdated": "7/10/2024"
    },
    {
      "id": "19475",
      "title": "Goodwill - Anderson",
      "company": "Goodwill",
      "description": "Goodwill is a non-profit organization that initiates community-based programs related to gainful employment. It was founded in 1902 in Boston.\n\nThe accept financial donations, as well as clothing and household items in usable condition. If you're not sure whether they can accept your donation, please give them a call beforehand.",
      "state": "South Carolina",
      "stateSlug": "south-carolina",
      "city": "Anderson",
      "address": "2901-A S Main St, Anderson, SC 29624, USA",
      "street": "South Main Street",
      "zip": "29624",
      "coordinates": {
        "lat": 34.473212,
        "lng": -82.650834
      },
      "acceptedMaterials": [
        "Clothing",
        "Furniture",
        "Homewares"
      ],
      "logo": "goodwill.jpg",
      "permalink": "https://www.clothedonations.com/south-carolina/goodwill-anderson-2/",
      "lastUpdated": "7/10/2024"
    },
    {
      "id": "19476",
      "title": "Goodwill - Anderson",
      "company": "Goodwill",
      "description": "Goodwill is a non-profit organization that initiates community-based programs related to gainful employment. It was founded in 1902 in Boston.\n\nThe accept financial donations, as well as clothing and household items in usable condition. If you're not sure whether they can accept your donation, please give them a call beforehand.",
      "state": "South Carolina",
      "stateSlug": "south-carolina",
      "city": "Anderson",
      "address": "3019 N Main St, Anderson, SC 29621, USA",
      "street": "3019 North Main Street",
      "zip": "29621",
      "coordinates": {
        "lat": 34.534944,
        "lng": -82.667163
      },
      "acceptedMaterials": [
        "Clothing",
        "Furniture",
        "Homewares"
      ],
      "logo": "goodwill.jpg",
      "permalink": "https://www.clothedonations.com/south-carolina/goodwill-anderson-3/",
      "lastUpdated": "7/10/2024"
    },
    {
      "id": "19610",
      "title": "Goodwill - Batesburg",
      "company": "Goodwill",
      "description": "Goodwill is a non-profit organization that initiates community-based programs related to gainful employment. It was founded in 1902 in Boston.\n\nThe accept financial donations, as well as clothing and household items in usable condition. If you're not sure whether they can accept your donation, please give them a call beforehand.",
      "state": "South Carolina",
      "stateSlug": "south-carolina",
      "city": "Unknown",
      "address": "218 W Columbia Ave, Batesburg-Leesville, SC 29006, USA",
      "street": "218 West Columbia Avenue",
      "zip": "29006",
      "coordinates": {
        "lat": 33.909564,
        "lng": -81.531825
      },
      "acceptedMaterials": [
        "Clothing",
        "Furniture",
        "Homewares"
      ],
      "logo": "goodwill.jpg",
      "permalink": "https://www.clothedonations.com/south-carolina/goodwill-batesburg/",
      "lastUpdated": "7/10/2024"
    },
    {
      "id": "19691",
      "title": "Goodwill - Boiling Springs",
      "company": "Goodwill",
      "description": "Goodwill is a non-profit organization that initiates community-based programs related to gainful employment. It was founded in 1902 in Boston.\n\nThe accept financial donations, as well as clothing and household items in usable condition. If you're not sure whether they can accept your donation, please give them a call beforehand.",
      "state": "South Carolina",
      "stateSlug": "south-carolina",
      "city": "Unknown",
      "address": "3585 Boiling Springs Rd, Boiling Springs, SC 29316, USA",
      "street": "3585 Boiling Springs Road",
      "zip": "29316",
      "coordinates": {
        "lat": 35.042829,
        "lng": -81.980044
      },
      "acceptedMaterials": [
        "Clothing",
        "Furniture",
        "Homewares"
      ],
      "logo": "goodwill.jpg",
      "permalink": "https://www.clothedonations.com/south-carolina/goodwill-boiling-springs/",
      "lastUpdated": "7/10/2024"
    },
    {
      "id": "19776",
      "title": "Goodwill - Camden",
      "company": "Goodwill",
      "description": "Goodwill is a non-profit organization that initiates community-based programs related to gainful employment. It was founded in 1902 in Boston.\n\nThe accept financial donations, as well as clothing and household items in usable condition. If you're not sure whether they can accept your donation, please give them a call beforehand.",
      "state": "South Carolina",
      "stateSlug": "south-carolina",
      "city": "Unknown",
      "address": "1671 Springdale Dr, Camden, SC 29020, USA",
      "street": "Springdale Drive",
      "zip": "",
      "coordinates": {
        "lat": 34.251127,
        "lng": -80.642577
      },
      "acceptedMaterials": [
        "Clothing",
        "Furniture",
        "Homewares"
      ],
      "logo": "goodwill.jpg",
      "permalink": "https://www.clothedonations.com/south-carolina/goodwill-camden/",
      "lastUpdated": "7/10/2024"
    },
    {
      "id": "19928",
      "title": "Goodwill - Columbia",
      "company": "Goodwill",
      "description": "Goodwill is a non-profit organization that initiates community-based programs related to gainful employment. It was founded in 1902 in Boston.\n\nThe accept financial donations, as well as clothing and household items in usable condition. If you're not sure whether they can accept your donation, please give them a call beforehand.",
      "state": "South Carolina",
      "stateSlug": "south-carolina",
      "city": "Unknown",
      "address": "111 Highland Center Drive, Columbia, SC 29203, USA",
      "street": "",
      "zip": "",
      "coordinates": {
        "lat": 34.113777,
        "lng": -80.948204
      },
      "acceptedMaterials": [
        "Clothing",
        "Furniture",
        "Homewares"
      ],
      "logo": "goodwill.jpg",
      "permalink": "https://www.clothedonations.com/south-carolina/goodwill-columbia-4/",
      "lastUpdated": "7/10/2024"
    },
    {
      "id": "19929",
      "title": "Goodwill - Columbia",
      "company": "Goodwill",
      "description": "Goodwill is a non-profit organization that initiates community-based programs related to gainful employment. It was founded in 1902 in Boston.\n\nThe accept financial donations, as well as clothing and household items in usable condition. If you're not sure whether they can accept your donation, please give them a call beforehand.",
      "state": "South Carolina",
      "stateSlug": "south-carolina",
      "city": "Unknown",
      "address": "2744 Decker Blvd, Columbia, SC 29206, USA",
      "street": "",
      "zip": "",
      "coordinates": {
        "lat": 34.063995,
        "lng": -80.953343
      },
      "acceptedMaterials": [
        "Clothing",
        "Furniture",
        "Homewares"
      ],
      "logo": "goodwill.jpg",
      "permalink": "https://www.clothedonations.com/south-carolina/goodwill-columbia-5/",
      "lastUpdated": "7/10/2024"
    },
    {
      "id": "19930",
      "title": "Goodwill - Columbia",
      "company": "Goodwill",
      "description": "Goodwill is a non-profit organization that initiates community-based programs related to gainful employment. It was founded in 1902 in Boston.\n\nThe accept financial donations, as well as clothing and household items in usable condition. If you're not sure whether they can accept your donation, please give them a call beforehand.",
      "state": "South Carolina",
      "stateSlug": "south-carolina",
      "city": "Columbia",
      "address": "555 St Andrews Rd, Columbia, SC 29210, USA",
      "street": "555 St Andrews Terrace Road",
      "zip": "29210",
      "coordinates": {
        "lat": 34.046374,
        "lng": -81.127795
      },
      "acceptedMaterials": [
        "Clothing",
        "Furniture",
        "Homewares"
      ],
      "logo": "goodwill.jpg",
      "permalink": "https://www.clothedonations.com/south-carolina/goodwill-columbia-6/",
      "lastUpdated": "7/10/2024"
    },
    {
      "id": "19931",
      "title": "Goodwill - Columbia",
      "company": "Goodwill",
      "description": "Goodwill is a non-profit organization that initiates community-based programs related to gainful employment. It was founded in 1902 in Boston.\n\nThe accept financial donations, as well as clothing and household items in usable condition. If you're not sure whether they can accept your donation, please give them a call beforehand.",
      "state": "South Carolina",
      "stateSlug": "south-carolina",
      "city": "Columbia",
      "address": "6642 Garners Ferry Rd, Columbia, SC 29209, USA",
      "street": "6642 Garners Ferry Road",
      "zip": "29209",
      "coordinates": {
        "lat": 33.978872,
        "lng": -80.958126
      },
      "acceptedMaterials": [
        "Clothing",
        "Furniture",
        "Homewares"
      ],
      "logo": "goodwill.jpg",
      "permalink": "https://www.clothedonations.com/south-carolina/goodwill-columbia-7/",
      "lastUpdated": "7/10/2024"
    },
    {
      "id": "19932",
      "title": "Goodwill - Columbia",
      "company": "Goodwill",
      "description": "Goodwill is a non-profit organization that initiates community-based programs related to gainful employment. It was founded in 1902 in Boston.\n\nThe accept financial donations, as well as clothing and household items in usable condition. If you're not sure whether they can accept your donation, please give them a call beforehand.",
      "state": "South Carolina",
      "stateSlug": "south-carolina",
      "city": "Columbia",
      "address": "9630 Two Notch Rd, Columbia, SC 29223, USA",
      "street": "Two Notch Road",
      "zip": "29223",
      "coordinates": {
        "lat": 34.102755,
        "lng": -80.908271
      },
      "acceptedMaterials": [
        "Clothing",
        "Furniture",
        "Homewares"
      ],
      "logo": "goodwill.jpg",
      "permalink": "https://www.clothedonations.com/south-carolina/goodwill-columbia-8/",
      "lastUpdated": "7/10/2024"
    },
    {
      "id": "20079",
      "title": "Goodwill - Easley",
      "company": "Goodwill",
      "description": "Goodwill is a non-profit organization that initiates community-based programs related to gainful employment. It was founded in 1902 in Boston.\n\nThe accept financial donations, as well as clothing and household items in usable condition. If you're not sure whether they can accept your donation, please give them a call beforehand.",
      "state": "South Carolina",
      "stateSlug": "south-carolina",
      "city": "Unknown",
      "address": "811 Saco Lowell Rd, Easley, SC 29640, USA",
      "street": "811 Saco Lowell Road",
      "zip": "29640",
      "coordinates": {
        "lat": 34.82718,
        "lng": -82.553148
      },
      "acceptedMaterials": [
        "Clothing",
        "Furniture",
        "Homewares"
      ],
      "logo": "goodwill.jpg",
      "permalink": "https://www.clothedonations.com/south-carolina/goodwill-easley/",
      "lastUpdated": "7/10/2024"
    },
    {
      "id": "20223",
      "title": "Goodwill - Gaffney",
      "company": "Goodwill",
      "description": "Goodwill is a non-profit organization that initiates community-based programs related to gainful employment. It was founded in 1902 in Boston.\n\nThe accept financial donations, as well as clothing and household items in usable condition. If you're not sure whether they can accept your donation, please give them a call beforehand.",
      "state": "South Carolina",
      "stateSlug": "south-carolina",
      "city": "Unknown",
      "address": "1307 W Floyd Baker Blvd, Gaffney, SC 29340, USA",
      "street": "1307 West Floyd Baker Boulevard",
      "zip": "29341",
      "coordinates": {
        "lat": 35.084513,
        "lng": -81.662285
      },
      "acceptedMaterials": [
        "Clothing",
        "Furniture",
        "Homewares"
      ],
      "logo": "goodwill.jpg",
      "permalink": "https://www.clothedonations.com/south-carolina/goodwill-gaffney/",
      "lastUpdated": "7/10/2024"
    },
    {
      "id": "20286",
      "title": "Goodwill - Greenville",
      "company": "Goodwill",
      "description": "Goodwill is a non-profit organization that initiates community-based programs related to gainful employment. It was founded in 1902 in Boston.\n\nThe accept financial donations, as well as clothing and household items in usable condition. If you're not sure whether they can accept your donation, please give them a call beforehand.",
      "state": "South Carolina",
      "stateSlug": "south-carolina",
      "city": "Greenville",
      "address": "115 Haywood Rd, Greenville, SC 29607, USA",
      "street": "115 Haywood Road",
      "zip": "29607",
      "coordinates": {
        "lat": 34.836097,
        "lng": -82.346715
      },
      "acceptedMaterials": [
        "Clothing",
        "Furniture",
        "Homewares"
      ],
      "logo": "goodwill.jpg",
      "permalink": "https://www.clothedonations.com/south-carolina/goodwill-greenville-2/",
      "lastUpdated": "7/10/2024"
    },
    {
      "id": "20287",
      "title": "Goodwill - Greenville",
      "company": "Goodwill",
      "description": "Goodwill is a non-profit organization that initiates community-based programs related to gainful employment. It was founded in 1902 in Boston.\n\nThe accept financial donations, as well as clothing and household items in usable condition. If you're not sure whether they can accept your donation, please give them a call beforehand.",
      "state": "South Carolina",
      "stateSlug": "south-carolina",
      "city": "Unknown",
      "address": "1902 Woodruff Rd, Greenville, SC 29607, USA",
      "street": "1902 Woodruff Road",
      "zip": "29681",
      "coordinates": {
        "lat": 34.819594,
        "lng": -82.263507
      },
      "acceptedMaterials": [
        "Clothing",
        "Furniture",
        "Homewares"
      ],
      "logo": "goodwill.jpg",
      "permalink": "https://www.clothedonations.com/south-carolina/goodwill-greenville-3/",
      "lastUpdated": "7/10/2024"
    },
    {
      "id": "20288",
      "title": "Goodwill - Greenville",
      "company": "Goodwill",
      "description": "Goodwill is a non-profit organization that initiates community-based programs related to gainful employment. It was founded in 1902 in Boston.\n\nThe accept financial donations, as well as clothing and household items in usable condition. If you're not sure whether they can accept your donation, please give them a call beforehand.",
      "state": "South Carolina",
      "stateSlug": "south-carolina",
      "city": "Greenville",
      "address": "2550 N Pleasantburg Dr, Greenville, SC 29609, USA",
      "street": "2550 North Pleasantburg Drive",
      "zip": "29609",
      "coordinates": {
        "lat": 34.8889,
        "lng": -82.386291
      },
      "acceptedMaterials": [
        "Clothing",
        "Furniture",
        "Homewares"
      ],
      "logo": "goodwill.jpg",
      "permalink": "https://www.clothedonations.com/south-carolina/goodwill-greenville-4/",
      "lastUpdated": "7/10/2024"
    },
    {
      "id": "20289",
      "title": "Goodwill - Greenville",
      "company": "Goodwill",
      "description": "Goodwill is a non-profit organization that initiates community-based programs related to gainful employment. It was founded in 1902 in Boston.\n\nThe accept financial donations, as well as clothing and household items in usable condition. If you're not sure whether they can accept your donation, please give them a call beforehand.",
      "state": "South Carolina",
      "stateSlug": "south-carolina",
      "city": "Greenville",
      "address": "3214 Augusta St, Greenville, SC 29605, USA",
      "street": "3214 Augusta Street",
      "zip": "29605",
      "coordinates": {
        "lat": 34.807467,
        "lng": -82.381038
      },
      "acceptedMaterials": [
        "Clothing",
        "Furniture",
        "Homewares"
      ],
      "logo": "goodwill.jpg",
      "permalink": "https://www.clothedonations.com/south-carolina/goodwill-greenville-5/",
      "lastUpdated": "7/10/2024"
    },
    {
      "id": "20290",
      "title": "Goodwill - Greenville",
      "company": "Goodwill",
      "description": "Goodwill is a non-profit organization that initiates community-based programs related to gainful employment. It was founded in 1902 in Boston.\n\nThe accept financial donations, as well as clothing and household items in usable condition. If you're not sure whether they can accept your donation, please give them a call beforehand.",
      "state": "South Carolina",
      "stateSlug": "south-carolina",
      "city": "Unknown",
      "address": "3229 W Blue Ridge Dr, Greenville, SC 29611, USA",
      "street": "3229 West Blue Ridge Drive",
      "zip": "29611",
      "coordinates": {
        "lat": 34.85263,
        "lng": -82.448739
      },
      "acceptedMaterials": [
        "Clothing",
        "Furniture",
        "Homewares"
      ],
      "logo": "goodwill.jpg",
      "permalink": "https://www.clothedonations.com/south-carolina/goodwill-greenville-6/",
      "lastUpdated": "7/10/2024"
    },
    {
      "id": "20291",
      "title": "Goodwill - Greenville",
      "company": "Goodwill",
      "description": "Goodwill is a non-profit organization that initiates community-based programs related to gainful employment. It was founded in 1902 in Boston.\n\nThe accept financial donations, as well as clothing and household items in usable condition. If you're not sure whether they can accept your donation, please give them a call beforehand.",
      "state": "South Carolina",
      "stateSlug": "south-carolina",
      "city": "Unknown",
      "address": "412 Sulphur Springs Rd, Greenville, SC 29617, USA",
      "street": "412 Sulphur Springs Road",
      "zip": "29617",
      "coordinates": {
        "lat": 34.892384,
        "lng": -82.450311
      },
      "acceptedMaterials": [
        "Clothing",
        "Furniture",
        "Homewares"
      ],
      "logo": "goodwill.jpg",
      "permalink": "https://www.clothedonations.com/south-carolina/goodwill-greenville-7/",
      "lastUpdated": "7/10/2024"
    },
    {
      "id": "20301",
      "title": "Goodwill - Greenwood",
      "company": "Goodwill",
      "description": "Goodwill is a non-profit organization that initiates community-based programs related to gainful employment. It was founded in 1902 in Boston.\n\nThe accept financial donations, as well as clothing and household items in usable condition. If you're not sure whether they can accept your donation, please give them a call beforehand.",
      "state": "South Carolina",
      "stateSlug": "south-carolina",
      "city": "Greenwood",
      "address": "1306 Montague Ave, Greenwood, SC 29649, USA",
      "street": "1306 Montague Avenue",
      "zip": "29649",
      "coordinates": {
        "lat": 34.216544,
        "lng": -82.181603
      },
      "acceptedMaterials": [
        "Clothing",
        "Furniture",
        "Homewares"
      ],
      "logo": "goodwill.jpg",
      "permalink": "https://www.clothedonations.com/south-carolina/goodwill-greenwood-4/",
      "lastUpdated": "7/10/2024"
    },
    {
      "id": "20302",
      "title": "Goodwill - Greer",
      "company": "Goodwill",
      "description": "Goodwill is a non-profit organization that initiates community-based programs related to gainful employment. It was founded in 1902 in Boston.\n\nThe accept financial donations, as well as clothing and household items in usable condition. If you're not sure whether they can accept your donation, please give them a call beforehand.",
      "state": "South Carolina",
      "stateSlug": "south-carolina",
      "city": "Greer",
      "address": "1333 W Wade Hampton Blvd, Greer, SC 29650, USA",
      "street": "1333 West Wade Hampton Boulevard",
      "zip": "29650",
      "coordinates": {
        "lat": 34.939838,
        "lng": -82.262794
      },
      "acceptedMaterials": [
        "Clothing",
        "Furniture",
        "Homewares"
      ],
      "logo": "goodwill.jpg",
      "permalink": "https://www.clothedonations.com/south-carolina/goodwill-greer/",
      "lastUpdated": "7/10/2024"
    },
    {
      "id": "20499",
      "title": "Goodwill - Irmo",
      "company": "Goodwill",
      "description": "Goodwill is a non-profit organization that initiates community-based programs related to gainful employment. It was founded in 1902 in Boston.\n\nThe accept financial donations, as well as clothing and household items in usable condition. If you're not sure whether they can accept your donation, please give them a call beforehand.",
      "state": "South Carolina",
      "stateSlug": "south-carolina",
      "city": "Columbia",
      "address": "7138 Broad River Rd, Irmo, SC 29063, USA",
      "street": "7138 Broad River Road",
      "zip": "29063",
      "coordinates": {
        "lat": 34.094028,
        "lng": -81.154144
      },
      "acceptedMaterials": [
        "Clothing",
        "Furniture",
        "Homewares"
      ],
      "logo": "goodwill.jpg",
      "permalink": "https://www.clothedonations.com/south-carolina/goodwill-irmo/",
      "lastUpdated": "7/10/2024"
    },
    {
      "id": "20637",
      "title": "Goodwill - Laurens",
      "company": "Goodwill",
      "description": "Goodwill is a non-profit organization that initiates community-based programs related to gainful employment. It was founded in 1902 in Boston.\n\nThe accept financial donations, as well as clothing and household items in usable condition. If you're not sure whether they can accept your donation, please give them a call beforehand.",
      "state": "South Carolina",
      "stateSlug": "south-carolina",
      "city": "Unknown",
      "address": "908 E Main St, Laurens, SC 29360, USA",
      "street": "908B East Main Street",
      "zip": "29360",
      "coordinates": {
        "lat": 34.492596,
        "lng": -81.982788
      },
      "acceptedMaterials": [
        "Clothing",
        "Furniture",
        "Homewares"
      ],
      "logo": "goodwill.jpg",
      "permalink": "https://www.clothedonations.com/south-carolina/goodwill-laurens/",
      "lastUpdated": "7/10/2024"
    },
    {
      "id": "20682",
      "title": "Goodwill - Lexington",
      "company": "Goodwill",
      "description": "Goodwill is a non-profit organization that initiates community-based programs related to gainful employment. It was founded in 1902 in Boston.\n\nThe accept financial donations, as well as clothing and household items in usable condition. If you're not sure whether they can accept your donation, please give them a call beforehand.",
      "state": "South Carolina",
      "stateSlug": "south-carolina",
      "city": "Unknown",
      "address": "118 Knoll Station Dr, Lexington, SC 29073, USA",
      "street": "118 Knoll Station Drive",
      "zip": "29073",
      "coordinates": {
        "lat": 33.91391,
        "lng": -81.225152
      },
      "acceptedMaterials": [
        "Clothing",
        "Furniture",
        "Homewares"
      ],
      "logo": "goodwill.jpg",
      "permalink": "https://www.clothedonations.com/south-carolina/goodwill-lexington-13/",
      "lastUpdated": "7/10/2024"
    },
    {
      "id": "20683",
      "title": "Goodwill - Lexington",
      "company": "Goodwill",
      "description": "Goodwill is a non-profit organization that initiates community-based programs related to gainful employment. It was founded in 1902 in Boston.\n\nThe accept financial donations, as well as clothing and household items in usable condition. If you're not sure whether they can accept your donation, please give them a call beforehand.",
      "state": "South Carolina",
      "stateSlug": "south-carolina",
      "city": "Unknown",
      "address": "1307 W Main St, Lexington, SC 29072, USA",
      "street": "West Main Street",
      "zip": "29072",
      "coordinates": {
        "lat": 33.982795,
        "lng": -81.259991
      },
      "acceptedMaterials": [
        "Clothing",
        "Furniture",
        "Homewares"
      ],
      "logo": "goodwill.jpg",
      "permalink": "https://www.clothedonations.com/south-carolina/goodwill-lexington-14/",
      "lastUpdated": "7/10/2024"
    },
    {
      "id": "20684",
      "title": "Goodwill - Lexington",
      "company": "Goodwill",
      "description": "Goodwill is a non-profit organization that initiates community-based programs related to gainful employment. It was founded in 1902 in Boston.\n\nThe accept financial donations, as well as clothing and household items in usable condition. If you're not sure whether they can accept your donation, please give them a call beforehand.",
      "state": "South Carolina",
      "stateSlug": "south-carolina",
      "city": "Unknown",
      "address": "4708 Sunset Blvd, Lexington, SC 29072, USA",
      "street": "4708 Sunset Boulevard",
      "zip": "29072",
      "coordinates": {
        "lat": 34.01349,
        "lng": -81.172252
      },
      "acceptedMaterials": [
        "Clothing",
        "Furniture",
        "Homewares"
      ],
      "logo": "goodwill.jpg",
      "permalink": "https://www.clothedonations.com/south-carolina/goodwill-lexington-15/",
      "lastUpdated": "7/10/2024"
    },
    {
      "id": "21055",
      "title": "Goodwill - Newberry",
      "company": "Goodwill",
      "description": "Goodwill is a non-profit organization that initiates community-based programs related to gainful employment. It was founded in 1902 in Boston.\n\nThe accept financial donations, as well as clothing and household items in usable condition. If you're not sure whether they can accept your donation, please give them a call beforehand.",
      "state": "South Carolina",
      "stateSlug": "south-carolina",
      "city": "Unknown",
      "address": "1931 Wilson Rd, Newberry, SC 29108, USA",
      "street": "1931 Wilson Road",
      "zip": "29108",
      "coordinates": {
        "lat": 34.293519,
        "lng": -81.607253
      },
      "acceptedMaterials": [
        "Clothing",
        "Furniture",
        "Homewares"
      ],
      "logo": "goodwill.jpg",
      "permalink": "https://www.clothedonations.com/south-carolina/goodwill-newberry/",
      "lastUpdated": "7/10/2024"
    },
    {
      "id": "21233",
      "title": "Goodwill - Pendleton",
      "company": "Goodwill",
      "description": "Goodwill is a non-profit organization that initiates community-based programs related to gainful employment. It was founded in 1902 in Boston.\n\nThe accept financial donations, as well as clothing and household items in usable condition. If you're not sure whether they can accept your donation, please give them a call beforehand.",
      "state": "South Carolina",
      "stateSlug": "south-carolina",
      "city": "Unknown",
      "address": "State Hwy 76, Pendleton, SC 29670, USA",
      "street": "",
      "zip": "",
      "coordinates": {
        "lat": 34.578237,
        "lng": -82.600804
      },
      "acceptedMaterials": [
        "Clothing",
        "Furniture",
        "Homewares"
      ],
      "logo": "goodwill.jpg",
      "permalink": "https://www.clothedonations.com/south-carolina/goodwill-pendleton/",
      "lastUpdated": "7/10/2024"
    },
    {
      "id": "21259",
      "title": "Goodwill - Piedmont",
      "company": "Goodwill",
      "description": "Goodwill is a non-profit organization that initiates community-based programs related to gainful employment. It was founded in 1902 in Boston.\n\nThe accept financial donations, as well as clothing and household items in usable condition. If you're not sure whether they can accept your donation, please give them a call beforehand.",
      "state": "South Carolina",
      "stateSlug": "south-carolina",
      "city": "Unknown",
      "address": "7861 Augusta Rd, Piedmont, SC 29673, USA",
      "street": "7861 Augusta Road",
      "zip": "29673",
      "coordinates": {
        "lat": 34.698031,
        "lng": -82.395099
      },
      "acceptedMaterials": [
        "Clothing",
        "Furniture",
        "Homewares"
      ],
      "logo": "goodwill.jpg",
      "permalink": "https://www.clothedonations.com/south-carolina/goodwill-piedmont/",
      "lastUpdated": "7/10/2024"
    },
    {
      "id": "21319",
      "title": "Goodwill - Powdersville",
      "company": "Goodwill",
      "description": "Goodwill is a non-profit organization that initiates community-based programs related to gainful employment. It was founded in 1902 in Boston.\n\nThe accept financial donations, as well as clothing and household items in usable condition. If you're not sure whether they can accept your donation, please give them a call beforehand.",
      "state": "South Carolina",
      "stateSlug": "south-carolina",
      "city": "Unknown",
      "address": "3570 SC-153, Powdersville, SC 29611, USA",
      "street": "3570 Highway 153",
      "zip": "29611",
      "coordinates": {
        "lat": 34.791142,
        "lng": -82.486063
      },
      "acceptedMaterials": [
        "Clothing",
        "Furniture",
        "Homewares"
      ],
      "logo": "goodwill.jpg",
      "permalink": "https://www.clothedonations.com/south-carolina/goodwill-powdersville/",
      "lastUpdated": "7/10/2024"
    },
    {
      "id": "21462",
      "title": "Goodwill - Seneca",
      "company": "Goodwill",
      "description": "Goodwill is a non-profit organization that initiates community-based programs related to gainful employment. It was founded in 1902 in Boston.\n\nThe accept financial donations, as well as clothing and household items in usable condition. If you're not sure whether they can accept your donation, please give them a call beforehand.",
      "state": "South Carolina",
      "stateSlug": "south-carolina",
      "city": "Unknown",
      "address": "1616 Sandifer Blvd, Seneca, SC 29678, USA",
      "street": "1616 Sandifer Boulevard",
      "zip": "29678",
      "coordinates": {
        "lat": 34.689521,
        "lng": -82.99547
      },
      "acceptedMaterials": [
        "Clothing",
        "Furniture",
        "Homewares"
      ],
      "logo": "goodwill.jpg",
      "permalink": "https://www.clothedonations.com/south-carolina/goodwill-seneca/",
      "lastUpdated": "7/10/2024"
    },
    {
      "id": "21492",
      "title": "Goodwill - Unit N, Simpsonville",
      "company": "Goodwill",
      "description": "Goodwill is a non-profit organization that initiates community-based programs related to gainful employment. It was founded in 1902 in Boston.\n\nThe accept financial donations, as well as clothing and household items in usable condition. If you're not sure whether they can accept your donation, please give them a call beforehand.",
      "state": "South Carolina",
      "stateSlug": "south-carolina",
      "city": "Simpsonville",
      "address": "915 South St N, Simpsonville, SC 29681, USA",
      "street": "915 South Street",
      "zip": "29681",
      "coordinates": {
        "lat": 34.723491,
        "lng": -82.255189
      },
      "acceptedMaterials": [
        "Clothing",
        "Furniture",
        "Homewares"
      ],
      "logo": "goodwill.jpg",
      "permalink": "https://www.clothedonations.com/south-carolina/goodwill-unit-n-simpsonville/",
      "lastUpdated": "7/10/2024"
    },
    {
      "id": "21523",
      "title": "Goodwill - Spartanburg",
      "company": "Goodwill",
      "description": "Goodwill is a non-profit organization that initiates community-based programs related to gainful employment. It was founded in 1902 in Boston.\n\nThe accept financial donations, as well as clothing and household items in usable condition. If you're not sure whether they can accept your donation, please give them a call beforehand.",
      "state": "South Carolina",
      "stateSlug": "south-carolina",
      "city": "Unknown",
      "address": "1300 Asheville Hwy, Spartanburg, SC 29303, USA",
      "street": "1300 Asheville Highway",
      "zip": "29303",
      "coordinates": {
        "lat": 34.97585,
        "lng": -81.961067
      },
      "acceptedMaterials": [
        "Clothing",
        "Furniture",
        "Homewares"
      ],
      "logo": "goodwill.jpg",
      "permalink": "https://www.clothedonations.com/south-carolina/goodwill-spartanburg/",
      "lastUpdated": "7/10/2024"
    },
    {
      "id": "21524",
      "title": "Goodwill - Spartanburg",
      "company": "Goodwill",
      "description": "Goodwill is a non-profit organization that initiates community-based programs related to gainful employment. It was founded in 1902 in Boston.\n\nThe accept financial donations, as well as clothing and household items in usable condition. If you're not sure whether they can accept your donation, please give them a call beforehand.",
      "state": "South Carolina",
      "stateSlug": "south-carolina",
      "city": "Spartanburg",
      "address": "219 E Blackstock Rd, Spartanburg, SC 29301, USA",
      "street": "219 East Blackstock Road",
      "zip": "29301",
      "coordinates": {
        "lat": 34.927099,
        "lng": -81.987314
      },
      "acceptedMaterials": [
        "Clothing",
        "Furniture",
        "Homewares"
      ],
      "logo": "goodwill.jpg",
      "permalink": "https://www.clothedonations.com/south-carolina/goodwill-spartanburg-2/",
      "lastUpdated": "7/10/2024"
    },
    {
      "id": "21525",
      "title": "Goodwill - Spartanburg",
      "company": "Goodwill",
      "description": "Goodwill is a non-profit organization that initiates community-based programs related to gainful employment. It was founded in 1902 in Boston.\n\nThe accept financial donations, as well as clothing and household items in usable condition. If you're not sure whether they can accept your donation, please give them a call beforehand.",
      "state": "South Carolina",
      "stateSlug": "south-carolina",
      "city": "Spartanburg",
      "address": "300 Dawn Redwood Dr, Spartanburg, SC 29307, USA",
      "street": "Dawn Redwood Drive",
      "zip": "29307",
      "coordinates": {
        "lat": 34.975397,
        "lng": -81.874763
      },
      "acceptedMaterials": [
        "Clothing",
        "Furniture",
        "Homewares"
      ],
      "logo": "goodwill.jpg",
      "permalink": "https://www.clothedonations.com/south-carolina/goodwill-spartanburg-3/",
      "lastUpdated": "7/10/2024"
    },
    {
      "id": "21633",
      "title": "Goodwill - Travelers Rest",
      "company": "Goodwill",
      "description": "Goodwill is a non-profit organization that initiates community-based programs related to gainful employment. It was founded in 1902 in Boston.\n\nThe accept financial donations, as well as clothing and household items in usable condition. If you're not sure whether they can accept your donation, please give them a call beforehand.",
      "state": "South Carolina",
      "stateSlug": "south-carolina",
      "city": "Unknown",
      "address": "1 Krieger Dr, Travelers Rest, SC 29690, USA",
      "street": "1 Krieger Drive",
      "zip": "29690",
      "coordinates": {
        "lat": 34.95866,
        "lng": -82.43338
      },
      "acceptedMaterials": [
        "Clothing",
        "Furniture",
        "Homewares"
      ],
      "logo": "goodwill.jpg",
      "permalink": "https://www.clothedonations.com/south-carolina/goodwill-travelers-rest/",
      "lastUpdated": "7/10/2024"
    },
    {
      "id": "21647",
      "title": "Goodwill - Union",
      "company": "Goodwill",
      "description": "Goodwill is a non-profit organization that initiates community-based programs related to gainful employment. It was founded in 1902 in Boston.\n\nThe accept financial donations, as well as clothing and household items in usable condition. If you're not sure whether they can accept your donation, please give them a call beforehand.",
      "state": "South Carolina",
      "stateSlug": "south-carolina",
      "city": "Unknown",
      "address": "441 N Duncan Bypass, Union, SC 29379, USA",
      "street": "441 North Duncan Bypass",
      "zip": "29379",
      "coordinates": {
        "lat": 34.723898,
        "lng": -81.640838
      },
      "acceptedMaterials": [
        "Clothing",
        "Furniture",
        "Homewares"
      ],
      "logo": "goodwill.jpg",
      "permalink": "https://www.clothedonations.com/south-carolina/goodwill-union/",
      "lastUpdated": "7/10/2024"
    },
    {
      "id": "21722",
      "title": "Goodwill - West Columbia",
      "company": "Goodwill",
      "description": "Goodwill is a non-profit organization that initiates community-based programs related to gainful employment. It was founded in 1902 in Boston.\n\nThe accept financial donations, as well as clothing and household items in usable condition. If you're not sure whether they can accept your donation, please give them a call beforehand.",
      "state": "South Carolina",
      "stateSlug": "south-carolina",
      "city": "Unknown",
      "address": "2119 Sunset Blvd, West Columbia, SC 29169, USA",
      "street": "2119 Sunset Boulevard",
      "zip": "29169",
      "coordinates": {
        "lat": 33.998458,
        "lng": -81.098143
      },
      "acceptedMaterials": [
        "Clothing",
        "Furniture",
        "Homewares"
      ],
      "logo": "goodwill.jpg",
      "permalink": "https://www.clothedonations.com/south-carolina/goodwill-west-columbia/",
      "lastUpdated": "7/10/2024"
    }
  ]
}